{"features": [{"geometry": {"coordinates": [38.431398, 1.441968], "type": "Point"}, "properties": {"category": "politics", "location": "Kenya", "title": "The memory driving Brown's mission", "topic": "The memory driving Brown's mission"}, "type": "Feature"}, {"geometry": {"coordinates": [-77.696936, 39.252879], "type": "Point"}, "properties": {"category": "politics", "location": "Britain", "title": "Blair and Brown criticised by MPs", "topic": "Blair and Brown criticised by MPs"}, "type": "Feature"}, {"geometry": {"coordinates": [44.174977, 33.095579], "type": "Point"}, "properties": {"category": "politics", "location": "Iraq", "title": "Blair returns from peace mission", "topic": "Blair returns from peace mission"}, "type": "Feature"}, {"geometry": {"coordinates": [-77.696936, 39.252879], "type": "Point"}, "properties": {"category": "politics", "location": "Britain", "title": "Labour seeks to quell feud talk", "topic": "Labour seeks to quell feud talk"}, "type": "Feature"}, {"geometry": {"coordinates": [117.890285, -2.483383], "type": "Point"}, "properties": {"category": "politics", "location": "Indonesia", "title": "Blair says UK tsunami aid to soar", "topic": "Blair says UK tsunami aid to soar"}, "type": "Feature"}, {"geometry": {"coordinates": [44.174977, 33.095579], "type": "Point"}, "properties": {"category": "politics", "location": "Iraq", "title": "Labour's core support takes stock", "topic": "Labour's core support takes stock"}, "type": "Feature"}, {"geometry": {"coordinates": [-3.276575, 54.702354], "type": "Point"}, "properties": {"category": "politics", "location": "UK", "title": "UK pledges \u00a31bn to vaccine effort", "topic": "UK pledges \u00a31bn to vaccine effort"}, "type": "Feature"}, {"geometry": {"coordinates": [-100.445882, 39.78373], "type": "Point"}, "properties": {"category": "politics", "location": "US", "title": "Blair sees greater Bush consensus", "topic": "Blair sees greater Bush consensus"}, "type": "Feature"}, {"geometry": {"coordinates": [44.174977, 33.095579], "type": "Point"}, "properties": {"category": "politics", "location": "Iraq", "title": "Blair to face trust issue head on", "topic": "Blair to face trust issue head on"}, "type": "Feature"}, {"geometry": {"coordinates": [-77.696936, 39.252879], "type": "Point"}, "properties": {"category": "politics", "location": "Britain", "title": "Blair 'said he would stand down'", "topic": "Blair 'said he would stand down'"}, "type": "Feature"}, {"geometry": {"coordinates": [-100.445882, 39.78373], "type": "Point"}, "properties": {"category": "politics", "location": "US", "title": "No election TV debate, says Blair", "topic": "No election TV debate, says Blair"}, "type": "Feature"}, {"geometry": {"coordinates": [-77.696936, 39.252879], "type": "Point"}, "properties": {"category": "politics", "location": "Britain", "title": "Labour's election love-in", "topic": "Labour's election love-in"}, "type": "Feature"}, {"geometry": {"coordinates": [-77.696936, 39.252879], "type": "Point"}, "properties": {"category": "politics", "location": "Britain", "title": "Blair pledges unity to Labour MPs", "topic": "Blair pledges unity to Labour MPs"}, "type": "Feature"}, {"geometry": {"coordinates": [44.174977, 33.095579], "type": "Point"}, "properties": {"category": "politics", "location": "Iraq", "title": "Labour MP praises Tory campaign", "topic": "Labour MP praises Tory campaign"}, "type": "Feature"}, {"geometry": {"coordinates": [-77.696936, 39.252879], "type": "Point"}, "properties": {"category": "politics", "location": "Britain", "title": "Blair 'up for it' ahead of poll", "topic": "Blair 'up for it' ahead of poll"}, "type": "Feature"}, {"geometry": {"coordinates": [-77.696936, 39.252879], "type": "Point"}, "properties": {"category": "politics", "location": "Britain", "title": "Brown ally rejects Budget spree", "topic": "Brown ally rejects Budget spree"}, "type": "Feature"}, {"geometry": {"coordinates": [44.174977, 33.095579], "type": "Point"}, "properties": {"category": "politics", "location": "Iraq", "title": "Blair Labour's longest-serving PM", "topic": "Blair Labour's longest-serving PM"}, "type": "Feature"}, {"geometry": {"coordinates": [-77.696936, 39.252879], "type": "Point"}, "properties": {"category": "politics", "location": "Britain", "title": "Blair dismisses quit claim report", "topic": "Blair dismisses quit claim report"}, "type": "Feature"}, {"geometry": {"coordinates": [-90.912328, 33.977331], "type": "Point"}, "properties": {"category": "politics", "location": "Perthshire", "title": "Blair sets date for Africa report", "topic": "Blair sets date for Africa report"}, "type": "Feature"}, {"geometry": {"coordinates": [139.239418, 36.574844], "type": "Point"}, "properties": {"category": "politics", "location": "Japan", "title": "Tsunami debt deal to be announced", "topic": "Tsunami debt deal to be announced"}, "type": "Feature"}, {"geometry": {"coordinates": [-77.696936, 39.252879], "type": "Point"}, "properties": {"category": "politics", "location": "Britain", "title": "Conservative MP defects to Labour", "topic": "Conservative MP defects to Labour"}, "type": "Feature"}, {"geometry": {"coordinates": [34.914498, -19.302233], "type": "Point"}, "properties": {"category": "politics", "location": "Mozambique", "title": "Blair to face MPs amid feud talk", "topic": "Blair to face MPs amid feud talk"}, "type": "Feature"}, {"geometry": {"coordinates": [24.991639, -28.816624], "type": "Point"}, "properties": {"category": "politics", "location": "South Africa", "title": "Boateng to step down at election", "topic": "Boateng to step down at election"}, "type": "Feature"}, {"geometry": {"coordinates": [-4.114052, 56.786111], "type": "Point"}, "properties": {"category": "politics", "location": "Scotland", "title": "Profile: Gordon Brown", "topic": "Profile: Gordon Brown"}, "type": "Feature"}, {"geometry": {"coordinates": [-100.920999, 37.043081], "type": "Point"}, "properties": {"category": "politics", "location": "Liberal", "title": "Analysis: No pain, no gain?", "topic": "Analysis: No pain, no gain?"}, "type": "Feature"}, {"geometry": {"coordinates": [-77.696936, 39.252879], "type": "Point"}, "properties": {"category": "politics", "location": "Britain", "title": "Brown outlines third term vision", "topic": "Brown outlines third term vision"}, "type": "Feature"}, {"geometry": {"coordinates": [-3.276575, 54.702354], "type": "Point"}, "properties": {"category": "politics", "location": "UK", "title": "'No UK apology' for colonial past", "topic": "'No UK apology' for colonial past"}, "type": "Feature"}, {"geometry": {"coordinates": [-86.809988, 33.285669], "type": "Point"}, "properties": {"category": "politics", "location": "Pelham", "title": "MP's shock at long lost daughter", "topic": "MP's shock at long lost daughter"}, "type": "Feature"}, {"geometry": {"coordinates": [-100.445882, 39.78373], "type": "Point"}, "properties": {"category": "politics", "location": "US", "title": "Blair congratulates Bush on win", "topic": "Blair congratulates Bush on win"}, "type": "Feature"}, {"geometry": {"coordinates": [-1.945812, 52.096739], "type": "Point"}, "properties": {"category": "politics", "location": "St Egwin's", "title": "Blair joins school sailing trip", "topic": "Blair joins school sailing trip"}, "type": "Feature"}, {"geometry": {"coordinates": [-3.276575, 54.702354], "type": "Point"}, "properties": {"category": "politics", "location": "UK", "title": "EU rules 'won't stop UK spending'", "topic": "EU rules 'won't stop UK spending'"}, "type": "Feature"}, {"geometry": {"coordinates": [-1.41944, 53.699123], "type": "Point"}, "properties": {"category": "politics", "location": "Normanton", "title": "Golden rule 'intact' says ex-aide", "topic": "Golden rule 'intact' says ex-aide"}, "type": "Feature"}, {"geometry": {"coordinates": [-77.696936, 39.252879], "type": "Point"}, "properties": {"category": "politics", "location": "Britain", "title": "Blair stresses prosperity goals", "topic": "Blair stresses prosperity goals"}, "type": "Feature"}, {"geometry": {"coordinates": [-2.008774, 48.216058], "type": "Point"}, "properties": {"category": "politics", "location": "New Labour", "title": "Blair looks to election campaign", "topic": "Blair looks to election campaign"}, "type": "Feature"}, {"geometry": {"coordinates": [-1.264906, 52.531021], "type": "Point"}, "properties": {"category": "politics", "location": "England", "title": "Brown 'proud of economy record'", "topic": "Brown 'proud of economy record'"}, "type": "Feature"}, {"geometry": {"coordinates": [-3.276575, 54.702354], "type": "Point"}, "properties": {"category": "politics", "location": "UK", "title": "Brown calls for \u00a35.5bn Aids fund", "topic": "Brown calls for \u00a35.5bn Aids fund"}, "type": "Feature"}, {"geometry": {"coordinates": [4.311346, 52.079984], "type": "Point"}, "properties": {"category": "politics", "location": "Hague", "title": "Hague 'given up' his PM ambition", "topic": "Hague 'given up' his PM ambition"}, "type": "Feature"}, {"geometry": {"coordinates": [-0.905029, 51.537579], "type": "Point"}, "properties": {"category": "politics", "location": "Henley", "title": "Boris opposes mayor apology", "topic": "Boris opposes mayor apology"}, "type": "Feature"}, {"geometry": {"coordinates": [44.174977, 33.095579], "type": "Point"}, "properties": {"category": "politics", "location": "Iraq", "title": "Aids and climate top Davos agenda", "topic": "Aids and climate top Davos agenda"}, "type": "Feature"}, {"geometry": {"coordinates": [-77.696936, 39.252879], "type": "Point"}, "properties": {"category": "politics", "location": "Britain", "title": "Brown to outline presidency goals", "topic": "Brown to outline presidency goals"}, "type": "Feature"}, {"geometry": {"coordinates": [-100.445882, 39.78373], "type": "Point"}, "properties": {"category": "politics", "location": "US", "title": "Blair 'pressing US on climate'", "topic": "Blair 'pressing US on climate'"}, "type": "Feature"}, {"geometry": {"coordinates": [-77.696936, 39.252879], "type": "Point"}, "properties": {"category": "politics", "location": "Britain", "title": "Tsunami 'won't divert Africa aid'", "topic": "Tsunami 'won't divert Africa aid'"}, "type": "Feature"}, {"geometry": {"coordinates": [-3.276575, 54.702354], "type": "Point"}, "properties": {"category": "politics", "location": "UK", "title": "World leaders gather to face uncertainty", "topic": "World leaders gather to face uncertainty"}, "type": "Feature"}, {"geometry": {"coordinates": [-100.445882, 39.78373], "type": "Point"}, "properties": {"category": "politics", "location": "US", "title": "G7 backs Africa debt relief plan", "topic": "G7 backs Africa debt relief plan"}, "type": "Feature"}, {"geometry": {"coordinates": [-3.188375, 55.953346], "type": "Point"}, "properties": {"category": "politics", "location": "Edinburgh", "title": "Blair backs 'pre-election budget'", "topic": "Blair backs 'pre-election budget'"}, "type": "Feature"}, {"geometry": {"coordinates": [34.924965, 38.959759], "type": "Point"}, "properties": {"category": "politics", "location": "Turkey", "title": "Leaders meet over Turkish EU bid", "topic": "Leaders meet over Turkish EU bid"}, "type": "Feature"}, {"geometry": {"coordinates": [-4.114052, 56.786111], "type": "Point"}, "properties": {"category": "politics", "location": "Scotland", "title": "Army chiefs in regiments decision", "topic": "Army chiefs in regiments decision"}, "type": "Feature"}, {"geometry": {"coordinates": [-77.696936, 39.252879], "type": "Point"}, "properties": {"category": "politics", "location": "Britain", "title": "Petrol duties frozen, Brown says", "topic": "Petrol duties frozen, Brown says"}, "type": "Feature"}, {"geometry": {"coordinates": [-77.696936, 39.252879], "type": "Point"}, "properties": {"category": "politics", "location": "Britain", "title": "Brown in appeal for Labour unity", "topic": "Brown in appeal for Labour unity"}, "type": "Feature"}, {"geometry": {"coordinates": [-0.127647, 51.507322], "type": "Point"}, "properties": {"category": "politics", "location": "London", "title": "Whitehall cuts 'ahead of target'", "topic": "Whitehall cuts 'ahead of target'"}, "type": "Feature"}, {"geometry": {"coordinates": [-2.008774, 48.216058], "type": "Point"}, "properties": {"category": "politics", "location": "New Labour", "title": "Profile: David Miliband", "topic": "Profile: David Miliband"}, "type": "Feature"}, {"geometry": {"coordinates": [-77.696936, 39.252879], "type": "Point"}, "properties": {"category": "politics", "location": "Britain", "title": "Brown and Blair face new rift claims", "topic": "Brown and Blair face new rift claims"}, "type": "Feature"}, {"geometry": {"coordinates": [-0.127647, 51.507322], "type": "Point"}, "properties": {"category": "politics", "location": "London", "title": "Blair says mayor should apologise", "topic": "Blair says mayor should apologise"}, "type": "Feature"}, {"geometry": {"coordinates": [-77.696936, 39.252879], "type": "Point"}, "properties": {"category": "politics", "location": "Britain", "title": "Could rivalry overshadow election?", "topic": "Could rivalry overshadow election?"}, "type": "Feature"}, {"geometry": {"coordinates": [-3.276575, 54.702354], "type": "Point"}, "properties": {"category": "politics", "location": "UK", "title": "Brown shrugs off economy fears", "topic": "Brown shrugs off economy fears"}, "type": "Feature"}, {"geometry": {"coordinates": [34.914498, -19.302233], "type": "Point"}, "properties": {"category": "politics", "location": "Mozambique", "title": "Brown visits slum on Africa trip", "topic": "Brown visits slum on Africa trip"}, "type": "Feature"}, {"geometry": {"coordinates": [-77.696936, 39.252879], "type": "Point"}, "properties": {"category": "politics", "location": "Britain", "title": "Blair told to double overseas aid", "topic": "Blair told to double overseas aid"}, "type": "Feature"}, {"geometry": {"coordinates": [34.866765, 31.531311], "type": "Point"}, "properties": {"category": "politics", "location": "Israel", "title": "Blair moves to woo Jewish voters", "topic": "Blair moves to woo Jewish voters"}, "type": "Feature"}, {"geometry": {"coordinates": [-0.127647, 51.507322], "type": "Point"}, "properties": {"category": "politics", "location": "London", "title": "PM apology over jailings", "topic": "PM apology over jailings"}, "type": "Feature"}, {"geometry": {"coordinates": [44.174977, 33.095579], "type": "Point"}, "properties": {"category": "politics", "location": "Iraq", "title": "Donor attacks Blair-Brown 'feud'", "topic": "Donor attacks Blair-Brown 'feud'"}, "type": "Feature"}, {"geometry": {"coordinates": [-77.696936, 39.252879], "type": "Point"}, "properties": {"category": "politics", "location": "Britain", "title": "Howard taunts Blair over splits", "topic": "Howard taunts Blair over splits"}, "type": "Feature"}, {"geometry": {"coordinates": [44.174977, 33.095579], "type": "Point"}, "properties": {"category": "politics", "location": "Iraq", "title": "End Bush 'denial' Blair tells EU", "topic": "End Bush 'denial' Blair tells EU"}, "type": "Feature"}, {"geometry": {"coordinates": [-4.838065, 39.326234], "type": "Point"}, "properties": {"category": "sports", "location": "Spain", "title": "Aragones angered by racism fine", "topic": "Aragones angered by racism fine"}, "type": "Feature"}, {"geometry": {"coordinates": [1.888334, 46.603354], "type": "Point"}, "properties": {"category": "sports", "location": "France", "title": "Santini resigns as Spurs manager", "topic": "Santini resigns as Spurs manager"}, "type": "Feature"}, {"geometry": {"coordinates": [-4.114052, 56.786111], "type": "Point"}, "properties": {"category": "sports", "location": "Scotland", "title": "Rovers reject third Ferguson bid", "topic": "Rovers reject third Ferguson bid"}, "type": "Feature"}, {"geometry": {"coordinates": [-2.991665, 53.407154], "type": "Point"}, "properties": {"category": "sports", "location": "Liverpool", "title": "Houllier praises Benitez regime", "topic": "Houllier praises Benitez regime"}, "type": "Feature"}, {"geometry": {"coordinates": [-1.264906, 52.531021], "type": "Point"}, "properties": {"category": "sports", "location": "England", "title": "Keegan hails comeback king Fowler", "topic": "Keegan hails comeback king Fowler"}, "type": "Feature"}, {"geometry": {"coordinates": [-76.84228, 39.241578], "type": "Point"}, "properties": {"category": "sports", "location": "Aston Villa", "title": "Beattie return calms attack fears", "topic": "Beattie return calms attack fears"}, "type": "Feature"}, {"geometry": {"coordinates": [12.960886, 47.854794], "type": "Point"}, "properties": {"category": "sports", "location": "Heinze", "title": "Ferguson urges Henry punishment", "topic": "Ferguson urges Henry punishment"}, "type": "Feature"}, {"geometry": {"coordinates": [-1.264906, 52.531021], "type": "Point"}, "properties": {"category": "sports", "location": "England", "title": "Reaction from Spanish press", "topic": "Reaction from Spanish press"}, "type": "Feature"}, {"geometry": {"coordinates": [5.748082, 52.50017], "type": "Point"}, "properties": {"category": "sports", "location": "Holland", "title": "Cole faces lengthy injury lay-off", "topic": "Cole faces lengthy injury lay-off"}, "type": "Feature"}, {"geometry": {"coordinates": [-1.264906, 52.531021], "type": "Point"}, "properties": {"category": "sports", "location": "England", "title": "Farrell saga to drag on - Lindsay", "topic": "Farrell saga to drag on - Lindsay"}, "type": "Feature"}, {"geometry": {"coordinates": [-7.97946, 52.865196], "type": "Point"}, "properties": {"category": "sports", "location": "Ireland", "title": "Kerr frustrated at victory margin", "topic": "Kerr frustrated at victory margin"}, "type": "Feature"}, {"geometry": {"coordinates": [-100.445882, 39.78373], "type": "Point"}, "properties": {"category": "sports", "location": "US", "title": "Hodges announces rugby retirement", "topic": "Hodges announces rugby retirement"}, "type": "Feature"}, {"geometry": {"coordinates": [-0.085255, 51.398243], "type": "Point"}, "properties": {"category": "sports", "location": "Selhurst Park", "title": "Palace threat over Cantona masks", "topic": "Palace threat over Cantona masks"}, "type": "Feature"}, {"geometry": {"coordinates": [-1.264906, 52.531021], "type": "Point"}, "properties": {"category": "sports", "location": "England", "title": "Hodgson relishes European clashes", "topic": "Hodgson relishes European clashes"}, "type": "Feature"}, {"geometry": {"coordinates": [-1.613157, 54.973847], "type": "Point"}, "properties": {"category": "sports", "location": "Newcastle", "title": "Mourinho defiant on Chelsea form", "topic": "Mourinho defiant on Chelsea form"}, "type": "Feature"}, {"geometry": {"coordinates": [-1.613157, 54.973847], "type": "Point"}, "properties": {"category": "sports", "location": "Newcastle", "title": "Cudicini misses Carling Cup final", "topic": "Cudicini misses Carling Cup final"}, "type": "Feature"}, {"geometry": {"coordinates": [5.748082, 52.50017], "type": "Point"}, "properties": {"category": "sports", "location": "Netherlands", "title": "Legendary Dutch boss Michels dies", "topic": "Legendary Dutch boss Michels dies"}, "type": "Feature"}, {"geometry": {"coordinates": [-0.067289, 51.597696], "type": "Point"}, "properties": {"category": "sports", "location": "Tottenham", "title": "Arnesen denies rift with Santini", "topic": "Arnesen denies rift with Santini"}, "type": "Feature"}, {"geometry": {"coordinates": [26.10272, 44.436141], "type": "Point"}, "properties": {"category": "sports", "location": "Bucharest", "title": "Mutu to hold talks with Juventus", "topic": "Mutu to hold talks with Juventus"}, "type": "Feature"}, {"geometry": {"coordinates": [121.114325, 14.553037], "type": "Point"}, "properties": {"category": "sports", "location": "Great Britain", "title": "Tigers wary of Farrell 'gamble'", "topic": "Tigers wary of Farrell 'gamble'"}, "type": "Feature"}, {"geometry": {"coordinates": [-17.207264, 28.062547], "type": "Point"}, "properties": {"category": "sports", "location": "hernia", "title": "Boro suffer Morrison injury blow", "topic": "Boro suffer Morrison injury blow"}, "type": "Feature"}, {"geometry": {"coordinates": [-2.991665, 53.407154], "type": "Point"}, "properties": {"category": "sports", "location": "Liverpool", "title": "FA charges Liverpool and Millwall", "topic": "FA charges Liverpool and Millwall"}, "type": "Feature"}, {"geometry": {"coordinates": [-2.991665, 53.407154], "type": "Point"}, "properties": {"category": "sports", "location": "Liverpool", "title": "Thompson says Gerrard should stay", "topic": "Thompson says Gerrard should stay"}, "type": "Feature"}, {"geometry": {"coordinates": [-3.73893, 52.292812], "type": "Point"}, "properties": {"category": "sports", "location": "Wales", "title": "Bellamy fined after row", "topic": "Bellamy fined after row"}, "type": "Feature"}, {"geometry": {"coordinates": [0.004568, 51.528097], "type": "Point"}, "properties": {"category": "sports", "location": "West Ham", "title": "Poll explains free-kick decision", "topic": "Poll explains free-kick decision"}, "type": "Feature"}, {"geometry": {"coordinates": [-2.991665, 53.407154], "type": "Point"}, "properties": {"category": "sports", "location": "Liverpool", "title": "Gerrard plays down European hopes", "topic": "Gerrard plays down European hopes"}, "type": "Feature"}, {"geometry": {"coordinates": [-1.264906, 52.531021], "type": "Point"}, "properties": {"category": "sports", "location": "England", "title": "Bosvelt optimistic over new deal", "topic": "Bosvelt optimistic over new deal"}, "type": "Feature"}, {"geometry": {"coordinates": [0.0, 0.0], "type": "Point"}, "properties": {"category": "sports", "location": "Primera Liga", "title": "Sociedad set to rescue Mladenovic", "topic": "Sociedad set to rescue Mladenovic"}, "type": "Feature"}, {"geometry": {"coordinates": [-3.74578, 5.196525], "type": "Point"}, "properties": {"category": "sports", "location": "Drogba", "title": "Duff ruled out of Barcelona clash", "topic": "Duff ruled out of Barcelona clash"}, "type": "Feature"}, {"geometry": {"coordinates": [14.520858, 59.674971], "type": "Point"}, "properties": {"category": "sports", "location": "Sweden", "title": "Solskjaer raises hopes of return", "topic": "Solskjaer raises hopes of return"}, "type": "Feature"}, {"geometry": {"coordinates": [-64.967282, -34.996496], "type": "Point"}, "properties": {"category": "sports", "location": "Argentina", "title": "Beckham rules out management move", "topic": "Beckham rules out management move"}, "type": "Feature"}, {"geometry": {"coordinates": [-1.264906, 52.531021], "type": "Point"}, "properties": {"category": "sports", "location": "England", "title": "Gerrard happy at Anfield", "topic": "Gerrard happy at Anfield"}, "type": "Feature"}, {"geometry": {"coordinates": [-4.114052, 56.786111], "type": "Point"}, "properties": {"category": "sports", "location": "Scotland", "title": "Souness backs Smith for Scotland", "topic": "Souness backs Smith for Scotland"}, "type": "Feature"}, {"geometry": {"coordinates": [-2.2334, 53.484444], "type": "Point"}, "properties": {"category": "sports", "location": "Manchester City", "title": "Man City 0-2 Man Utd", "topic": "Man City 0-2 Man Utd"}, "type": "Feature"}, {"geometry": {"coordinates": [-77.696936, 39.252879], "type": "Point"}, "properties": {"category": "sports", "location": "Britain", "title": "Connors boost for British tennis", "topic": "Connors boost for British tennis"}, "type": "Feature"}, {"geometry": {"coordinates": [-100.445882, 39.78373], "type": "Point"}, "properties": {"category": "sports", "location": "US", "title": "Glazer makes new Man Utd approach", "topic": "Glazer makes new Man Utd approach"}, "type": "Feature"}, {"geometry": {"coordinates": [-100.445882, 39.78373], "type": "Point"}, "properties": {"category": "sports", "location": "US", "title": "Mixed reaction to Man Utd offer", "topic": "Mixed reaction to Man Utd offer"}, "type": "Feature"}, {"geometry": {"coordinates": [-99.587382, 41.737023], "type": "Point"}, "properties": {"category": "sports", "location": "Nebraska", "title": "Man auctions ad space on forehead", "topic": "Man auctions ad space on forehead"}, "type": "Feature"}, {"geometry": {"coordinates": [-100.445882, 39.78373], "type": "Point"}, "properties": {"category": "sports", "location": "US", "title": "Q&A: Malcolm Glazer and Man Utd", "topic": "Q&A: Malcolm Glazer and Man Utd"}, "type": "Feature"}, {"geometry": {"coordinates": [29.267547, 26.254049], "type": "Point"}, "properties": {"category": "sports", "location": "Egypt", "title": "Mido makes third apology", "topic": "Mido makes third apology"}, "type": "Feature"}, {"geometry": {"coordinates": [-100.445882, 39.78373], "type": "Point"}, "properties": {"category": "sports", "location": "US", "title": "Man Utd to open books to Glazer", "topic": "Man Utd to open books to Glazer"}, "type": "Feature"}, {"geometry": {"coordinates": [139.239418, 36.574844], "type": "Point"}, "properties": {"category": "sports", "location": "Japan", "title": "Robben sidelined with broken foot", "topic": "Robben sidelined with broken foot"}, "type": "Feature"}, {"geometry": {"coordinates": [5.139157, 52.06], "type": "Point"}, "properties": {"category": "sports", "location": "Westfalen", "title": "Rescue hope for Borussia Dortmund", "topic": "Rescue hope for Borussia Dortmund"}, "type": "Feature"}, {"geometry": {"coordinates": [19.506094, 47.181759], "type": "Point"}, "properties": {"category": "sports", "location": "Hungary", "title": "Giggs handed Wales leading role", "topic": "Giggs handed Wales leading role"}, "type": "Feature"}, {"geometry": {"coordinates": [-91.697674, 47.18465], "type": "Point"}, "properties": {"category": "sports", "location": "Lauren", "title": "Arsenal through on penalties", "topic": "Arsenal through on penalties"}, "type": "Feature"}, {"geometry": {"coordinates": [-4.838065, 39.326234], "type": "Point"}, "properties": {"category": "sports", "location": "Spain", "title": "Spain coach faces racism inquiry", "topic": "Spain coach faces racism inquiry"}, "type": "Feature"}, {"geometry": {"coordinates": [0.013783, 42.876688], "type": "Point"}, "properties": {"category": "sports", "location": "Villa", "title": "O'Leary agrees new Villa contract", "topic": "O'Leary agrees new Villa contract"}, "type": "Feature"}, {"geometry": {"coordinates": [-4.838065, 39.326234], "type": "Point"}, "properties": {"category": "sports", "location": "Spain", "title": "Campbell lifts lid on United feud", "topic": "Campbell lifts lid on United feud"}, "type": "Feature"}, {"geometry": {"coordinates": [-2.2334, 53.484444], "type": "Point"}, "properties": {"category": "sports", "location": "Manchester City", "title": "McClaren targets Champions League", "topic": "McClaren targets Champions League"}, "type": "Feature"}, {"geometry": {"coordinates": [-4.114052, 56.786111], "type": "Point"}, "properties": {"category": "sports", "location": "Scotland", "title": "Jamieson issues warning to bigots", "topic": "Jamieson issues warning to bigots"}, "type": "Feature"}, {"geometry": {"coordinates": [-3.703582, 40.416705], "type": "Point"}, "properties": {"category": "sports", "location": "Madrid", "title": "Newcastle to join Morientes race", "topic": "Newcastle to join Morientes race"}, "type": "Feature"}, {"geometry": {"coordinates": [-1.613157, 54.973847], "type": "Point"}, "properties": {"category": "sports", "location": "Newcastle", "title": "Bellamy under new fire", "topic": "Bellamy under new fire"}, "type": "Feature"}, {"geometry": {"coordinates": [2.177432, 41.382894], "type": "Point"}, "properties": {"category": "sports", "location": "Barcelona", "title": "Kenyon denies Robben Barca return", "topic": "Kenyon denies Robben Barca return"}, "type": "Feature"}, {"geometry": {"coordinates": [-18.105901, 64.984182], "type": "Point"}, "properties": {"category": "sports", "location": "Iceland", "title": "Spurs to sign Iceland U21 star", "topic": "Spurs to sign Iceland U21 star"}, "type": "Feature"}, {"geometry": {"coordinates": [-3.74578, 5.196525], "type": "Point"}, "properties": {"category": "sports", "location": "Drogba", "title": "Chelsea clinch cup in extra-time", "topic": "Chelsea clinch cup in extra-time"}, "type": "Feature"}, {"geometry": {"coordinates": [-1.613157, 54.973847], "type": "Point"}, "properties": {"category": "sports", "location": "Newcastle", "title": "Newcastle 2-1 Bolton", "topic": "Newcastle 2-1 Bolton"}, "type": "Feature"}, {"geometry": {"coordinates": [-119.67847, 36.630506], "type": "Point"}, "properties": {"category": "sports", "location": "Fowler", "title": "Chelsea denied by James heroics", "topic": "Chelsea denied by James heroics"}, "type": "Feature"}, {"geometry": {"coordinates": [-1.902691, 52.479699], "type": "Point"}, "properties": {"category": "sports", "location": "Birmingham", "title": "Blues slam Blackburn over Savage", "topic": "Blues slam Blackburn over Savage"}, "type": "Feature"}, {"geometry": {"coordinates": [6.231168, 46.370935], "type": "Point"}, "properties": {"category": "sports", "location": "Uefa", "title": "Robertson out to retain Euro lure", "topic": "Robertson out to retain Euro lure"}, "type": "Feature"}, {"geometry": {"coordinates": [-1.613157, 54.973847], "type": "Point"}, "properties": {"category": "sports", "location": "Newcastle", "title": "Benitez deflects blame from Dudek", "topic": "Benitez deflects blame from Dudek"}, "type": "Feature"}, {"geometry": {"coordinates": [-1.902691, 52.479699], "type": "Point"}, "properties": {"category": "sports", "location": "Birmingham City", "title": "Gronkjaer agrees switch to Madrid", "topic": "Gronkjaer agrees switch to Madrid"}, "type": "Feature"}, {"geometry": {"coordinates": [-7.889626, 40.033263], "type": "Point"}, "properties": {"category": "sports", "location": "Portugal", "title": "Ronaldo considering new contract", "topic": "Ronaldo considering new contract"}, "type": "Feature"}, {"geometry": {"coordinates": [-100.000038, 22.500048], "type": "Point"}, "properties": {"category": "sports", "location": "Mexico", "title": "Mexicans tracking unhappy Juninho", "topic": "Mexicans tracking unhappy Juninho"}, "type": "Feature"}, {"geometry": {"coordinates": [-91.01183, 45.819683], "type": "Point"}, "properties": {"category": "sports", "location": "Winter", "title": "Dundee Utd 4-1 Aberdeen", "topic": "Dundee Utd 4-1 Aberdeen"}, "type": "Feature"}, {"geometry": {"coordinates": [-2.991665, 53.407154], "type": "Point"}, "properties": {"category": "sports", "location": "Liverpool", "title": "Parry firm over Gerrard", "topic": "Parry firm over Gerrard"}, "type": "Feature"}, {"geometry": {"coordinates": [5.748082, 52.50017], "type": "Point"}, "properties": {"category": "sports", "location": "Holland", "title": "Middlesbrough 2-2 Charlton", "topic": "Middlesbrough 2-2 Charlton"}, "type": "Feature"}, {"geometry": {"coordinates": [5.748082, 52.50017], "type": "Point"}, "properties": {"category": "sports", "location": "Holland", "title": "Ajax refuse to rule out Jol move", "topic": "Ajax refuse to rule out Jol move"}, "type": "Feature"}, {"geometry": {"coordinates": [-1.613157, 54.973847], "type": "Point"}, "properties": {"category": "sports", "location": "Newcastle", "title": "Bridge could miss rest of season", "topic": "Bridge could miss rest of season"}, "type": "Feature"}, {"geometry": {"coordinates": [-2.2334, 53.484444], "type": "Point"}, "properties": {"category": "sports", "location": "Manchester City", "title": "Anelka 'eyes Man City departure'", "topic": "Anelka 'eyes Man City departure'"}, "type": "Feature"}, {"geometry": {"coordinates": [-1.404189, 50.902535], "type": "Point"}, "properties": {"category": "sports", "location": "Southampton", "title": "Cole refuses to blame van Persie", "topic": "Cole refuses to blame van Persie"}, "type": "Feature"}, {"geometry": {"coordinates": [-72.680701, 42.657118], "type": "Point"}, "properties": {"category": "sports", "location": "Shearer", "title": "Souness delight at Euro progress", "topic": "Souness delight at Euro progress"}, "type": "Feature"}, {"geometry": {"coordinates": [-1.613157, 54.973847], "type": "Point"}, "properties": {"category": "sports", "location": "Newcastle", "title": "Jol joy at 'professional' Cup win", "topic": "Jol joy at 'professional' Cup win"}, "type": "Feature"}, {"geometry": {"coordinates": [2.177432, 41.382894], "type": "Point"}, "properties": {"category": "sports", "location": "Barcelona", "title": "Owen delighted with Real display", "topic": "Owen delighted with Real display"}, "type": "Feature"}, {"geometry": {"coordinates": [5.748082, 52.50017], "type": "Point"}, "properties": {"category": "sports", "location": "Holland", "title": "Downing injury mars Uefa victory", "topic": "Downing injury mars Uefa victory"}, "type": "Feature"}, {"geometry": {"coordinates": [-1.133079, 52.63614], "type": "Point"}, "properties": {"category": "sports", "location": "Leicester", "title": "Blackburn v Burnley", "topic": "Blackburn v Burnley"}, "type": "Feature"}, {"geometry": {"coordinates": [-1.902691, 52.479699], "type": "Point"}, "properties": {"category": "sports", "location": "Birmingham", "title": "Redknapp's Saints face Pompey tie", "topic": "Redknapp's Saints face Pompey tie"}, "type": "Feature"}, {"geometry": {"coordinates": [-1.264906, 52.531021], "type": "Point"}, "properties": {"category": "sports", "location": "England", "title": "Stuart joins Norwich from Addicks", "topic": "Stuart joins Norwich from Addicks"}, "type": "Feature"}, {"geometry": {"coordinates": [-1.902691, 52.479699], "type": "Point"}, "properties": {"category": "sports", "location": "Birmingham", "title": "Wenger keeping faith with Almunia", "topic": "Wenger keeping faith with Almunia"}, "type": "Feature"}, {"geometry": {"coordinates": [-1.063884, 50.796324], "type": "Point"}, "properties": {"category": "sports", "location": "Fratton Park", "title": "Redknapp poised for Saints", "topic": "Redknapp poised for Saints"}, "type": "Feature"}, {"geometry": {"coordinates": [-1.404189, 50.902535], "type": "Point"}, "properties": {"category": "sports", "location": "Southampton", "title": "Cup holders Man Utd visit Everton", "topic": "Cup holders Man Utd visit Everton"}, "type": "Feature"}, {"geometry": {"coordinates": [-2.991665, 53.407154], "type": "Point"}, "properties": {"category": "sports", "location": "Liverpool", "title": "Rush future at Chester uncertain", "topic": "Rush future at Chester uncertain"}, "type": "Feature"}, {"geometry": {"coordinates": [-96.796856, 32.776272], "type": "Point"}, "properties": {"category": "sports", "location": "Dallas", "title": "SFA awaits report over Mikoliunas", "topic": "SFA awaits report over Mikoliunas"}, "type": "Feature"}, {"geometry": {"coordinates": [-1.264906, 52.531021], "type": "Point"}, "properties": {"category": "sports", "location": "England", "title": "Bath faced with Tindall ultimatum", "topic": "Bath faced with Tindall ultimatum"}, "type": "Feature"}, {"geometry": {"coordinates": [-97.863464, 55.743347], "type": "Point"}, "properties": {"category": "sports", "location": "Thompson", "title": "Rangers seal Old Firm win", "topic": "Rangers seal Old Firm win"}, "type": "Feature"}, {"geometry": {"coordinates": [9.1905, 45.4668], "type": "Point"}, "properties": {"category": "sports", "location": "Milan", "title": "Ferguson fears Milan cutting edge", "topic": "Ferguson fears Milan cutting edge"}, "type": "Feature"}, {"geometry": {"coordinates": [-102.619343, 35.390765], "type": "Point"}, "properties": {"category": "sports", "location": "Oldham", "title": "Candela completes Bolton switch", "topic": "Candela completes Bolton switch"}, "type": "Feature"}, {"geometry": {"coordinates": [-1.404189, 50.902535], "type": "Point"}, "properties": {"category": "sports", "location": "Southampton", "title": "Tottenham bid &#163;8m for Forest duo", "topic": "Tottenham bid &#163;8m for Forest duo"}, "type": "Feature"}, {"geometry": {"coordinates": [0.013783, 42.876688], "type": "Point"}, "properties": {"category": "sports", "location": "Villa", "title": "Hitzlsperger waiting on O'Leary", "topic": "Hitzlsperger waiting on O'Leary"}, "type": "Feature"}, {"geometry": {"coordinates": [-55.827643, 47.072735], "type": "Point"}, "properties": {"category": "sports", "location": "Fortune", "title": "Bristol City 2-1 Milton Keynes", "topic": "Bristol City 2-1 Milton Keynes"}, "type": "Feature"}, {"geometry": {"coordinates": [-0.206077, 51.474422], "type": "Point"}, "properties": {"category": "sports", "location": "Fulham", "title": "Mourinho plots impressive course", "topic": "Mourinho plots impressive course"}, "type": "Feature"}, {"geometry": {"coordinates": [-1.613157, 54.973847], "type": "Point"}, "properties": {"category": "sports", "location": "Newcastle", "title": "Mourinho takes swipe at Arsenal", "topic": "Mourinho takes swipe at Arsenal"}, "type": "Feature"}, {"geometry": {"coordinates": [-4.838065, 39.326234], "type": "Point"}, "properties": {"category": "sports", "location": "Spain", "title": "Real in talks over Gravesen move", "topic": "Real in talks over Gravesen move"}, "type": "Feature"}, {"geometry": {"coordinates": [-2.991665, 53.407154], "type": "Point"}, "properties": {"category": "sports", "location": "Liverpool", "title": "Liverpool pledge to keep Gerrard", "topic": "Liverpool pledge to keep Gerrard"}, "type": "Feature"}, {"geometry": {"coordinates": [-1.902691, 52.479699], "type": "Point"}, "properties": {"category": "sports", "location": "Birmingham", "title": "Celtic make late bid for Bellamy", "topic": "Celtic make late bid for Bellamy"}, "type": "Feature"}, {"geometry": {"coordinates": [-1.264906, 52.531021], "type": "Point"}, "properties": {"category": "sports", "location": "England", "title": "Liverpool revel in night of glory", "topic": "Liverpool revel in night of glory"}, "type": "Feature"}, {"geometry": {"coordinates": [8.712874, 52.861228], "type": "Point"}, "properties": {"category": "sports", "location": "Hassel", "title": "Juninho demand for O'Neill talks", "topic": "Juninho demand for O'Neill talks"}, "type": "Feature"}, {"geometry": {"coordinates": [51.229529, 25.333698], "type": "Point"}, "properties": {"category": "sports", "location": "Qatar", "title": "Desailly backs Blues revenge trip", "topic": "Desailly backs Blues revenge trip"}, "type": "Feature"}, {"geometry": {"coordinates": [-72.680701, 42.657118], "type": "Point"}, "properties": {"category": "sports", "location": "Shearer", "title": "Souness eyes summer move for Owen", "topic": "Souness eyes summer move for Owen"}, "type": "Feature"}, {"geometry": {"coordinates": [-1.264906, 52.531021], "type": "Point"}, "properties": {"category": "sports", "location": "England", "title": "Owen determined to stay in Madrid", "topic": "Owen determined to stay in Madrid"}, "type": "Feature"}, {"geometry": {"coordinates": [-1.20937, 54.685728], "type": "Point"}, "properties": {"category": "sports", "location": "Hartlepool", "title": "Brentford v Southampton", "topic": "Brentford v Southampton"}, "type": "Feature"}, {"geometry": {"coordinates": [10.423447, 51.08342], "type": "Point"}, "properties": {"category": "sports", "location": "Germany", "title": "Klinsmann issues Lehmann warning", "topic": "Klinsmann issues Lehmann warning"}, "type": "Feature"}, {"geometry": {"coordinates": [-1.264906, 52.531021], "type": "Point"}, "properties": {"category": "sports", "location": "England", "title": "Wenger steps up row", "topic": "Wenger steps up row"}, "type": "Feature"}, {"geometry": {"coordinates": [11.575382, 48.137108], "type": "Point"}, "properties": {"category": "sports", "location": "Bayern Munich", "title": "English clubs make Euro history", "topic": "English clubs make Euro history"}, "type": "Feature"}, {"geometry": {"coordinates": [-4.838065, 39.326234], "type": "Point"}, "properties": {"category": "sports", "location": "Spain", "title": "Benitez delight after crucial win", "topic": "Benitez delight after crucial win"}, "type": "Feature"}, {"geometry": {"coordinates": [-3.179193, 51.481655], "type": "Point"}, "properties": {"category": "sports", "location": "Cardiff", "title": "Benitez issues warning to Gerrard", "topic": "Benitez issues warning to Gerrard"}, "type": "Feature"}, {"geometry": {"coordinates": [10.423447, 51.08342], "type": "Point"}, "properties": {"category": "sports", "location": "Germany", "title": "Benitez joy as Reds take control", "topic": "Benitez joy as Reds take control"}, "type": "Feature"}, {"geometry": {"coordinates": [2.177432, 41.382894], "type": "Point"}, "properties": {"category": "sports", "location": "Barcelona", "title": "FA decides not to punish Mourinho", "topic": "FA decides not to punish Mourinho"}, "type": "Feature"}, {"geometry": {"coordinates": [10.328083, 44.801368], "type": "Point"}, "properties": {"category": "sports", "location": "Parma", "title": "Adriano's Chelsea link rejected", "topic": "Adriano's Chelsea link rejected"}, "type": "Feature"}, {"geometry": {"coordinates": [-3.703582, 40.416705], "type": "Point"}, "properties": {"category": "sports", "location": "Madrid", "title": "Reyes tricked into Real admission", "topic": "Reyes tricked into Real admission"}, "type": "Feature"}, {"geometry": {"coordinates": [6.231168, 46.370935], "type": "Point"}, "properties": {"category": "sports", "location": "Uefa", "title": "Chelsea ridiculed over complaint", "topic": "Chelsea ridiculed over complaint"}, "type": "Feature"}, {"geometry": {"coordinates": [-0.021219, 51.493342], "type": "Point"}, "properties": {"category": "sports", "location": "Millwall", "title": "FA probes crowd trouble", "topic": "FA probes crowd trouble"}, "type": "Feature"}, {"geometry": {"coordinates": [14.921501, -16.676343], "type": "Point"}, "properties": {"category": "sports", "location": "Cafu", "title": "Stam spices up Man Utd encounter", "topic": "Stam spices up Man Utd encounter"}, "type": "Feature"}, {"geometry": {"coordinates": [5.748082, 52.50017], "type": "Point"}, "properties": {"category": "sports", "location": "Holland", "title": "McClaren hails Boro's Uefa spirit", "topic": "McClaren hails Boro's Uefa spirit"}, "type": "Feature"}, {"geometry": {"coordinates": [-1.264906, 52.531021], "type": "Point"}, "properties": {"category": "sports", "location": "England", "title": "Wolves appoint Hoddle as manager", "topic": "Wolves appoint Hoddle as manager"}, "type": "Feature"}, {"geometry": {"coordinates": [5.748082, 52.50017], "type": "Point"}, "properties": {"category": "sports", "location": "Holland", "title": "Van Nistelrooy set to return", "topic": "Van Nistelrooy set to return"}, "type": "Feature"}, {"geometry": {"coordinates": [2.177432, 41.382894], "type": "Point"}, "properties": {"category": "sports", "location": "Barcelona", "title": "Mourinho expects fight to finish", "topic": "Mourinho expects fight to finish"}, "type": "Feature"}, {"geometry": {"coordinates": [-2.991665, 53.407154], "type": "Point"}, "properties": {"category": "sports", "location": "Liverpool", "title": "Parry puts Gerrard 'above money'", "topic": "Parry puts Gerrard 'above money'"}, "type": "Feature"}, {"geometry": {"coordinates": [-102.619343, 35.390765], "type": "Point"}, "properties": {"category": "sports", "location": "Oldham", "title": "Pearce keen on succeeding Keegan", "topic": "Pearce keen on succeeding Keegan"}, "type": "Feature"}, {"geometry": {"coordinates": [-1.613157, 54.973847], "type": "Point"}, "properties": {"category": "sports", "location": "Newcastle", "title": "Dunne keen to commit to Man City", "topic": "Dunne keen to commit to Man City"}, "type": "Feature"}, {"geometry": {"coordinates": [79.066918, 21.145867], "type": "Point"}, "properties": {"category": "sports", "location": "Hislop", "title": "Robben and Cole earn Chelsea win", "topic": "Robben and Cole earn Chelsea win"}, "type": "Feature"}, {"geometry": {"coordinates": [-3.74578, 5.196525], "type": "Point"}, "properties": {"category": "sports", "location": "Drogba", "title": "Chelsea hold Arsenal", "topic": "Chelsea hold Arsenal"}, "type": "Feature"}, {"geometry": {"coordinates": [-2.991665, 53.407154], "type": "Point"}, "properties": {"category": "sports", "location": "Liverpool", "title": "Parry relishes Anfield challenge", "topic": "Parry relishes Anfield challenge"}, "type": "Feature"}, {"geometry": {"coordinates": [20.183246, 65.990414], "type": "Point"}, "properties": {"category": "sports", "location": "Robbie", "title": "Weir poised for Sunderland move", "topic": "Weir poised for Sunderland move"}, "type": "Feature"}, {"geometry": {"coordinates": [-1.264906, 52.531021], "type": "Point"}, "properties": {"category": "sports", "location": "England", "title": "Premier League planning Cole date", "topic": "Premier League planning Cole date"}, "type": "Feature"}, {"geometry": {"coordinates": [15.381281, 60.494712], "type": "Point"}, "properties": {"category": "sports", "location": "Jonatan", "title": "Curbishley delight for Johansson", "topic": "Curbishley delight for Johansson"}, "type": "Feature"}, {"geometry": {"coordinates": [-3.703582, 40.416705], "type": "Point"}, "properties": {"category": "sports", "location": "Madrid", "title": "Beckham relief as Real go through", "topic": "Beckham relief as Real go through"}, "type": "Feature"}, {"geometry": {"coordinates": [-1.382873, 54.905851], "type": "Point"}, "properties": {"category": "sports", "location": "Sunderland", "title": "Yeading face Newcastle in FA Cup", "topic": "Yeading face Newcastle in FA Cup"}, "type": "Feature"}, {"geometry": {"coordinates": [-100.445882, 39.78373], "type": "Point"}, "properties": {"category": "sports", "location": "US", "title": "Shares rise on new Man Utd offer", "topic": "Shares rise on new Man Utd offer"}, "type": "Feature"}, {"geometry": {"coordinates": [-53.2, -10.333333], "type": "Point"}, "properties": {"category": "sports", "location": "Brazil", "title": "Edu describes tunnel fracas", "topic": "Edu describes tunnel fracas"}, "type": "Feature"}, {"geometry": {"coordinates": [34.866765, 31.531311], "type": "Point"}, "properties": {"category": "sports", "location": "Israel", "title": "Israeli club look to Africa", "topic": "Israeli club look to Africa"}, "type": "Feature"}, {"geometry": {"coordinates": [2.177432, 41.382894], "type": "Point"}, "properties": {"category": "sports", "location": "Barcelona", "title": "Robben plays down European return", "topic": "Robben plays down European return"}, "type": "Feature"}, {"geometry": {"coordinates": [-1.470228, 53.380663], "type": "Point"}, "properties": {"category": "sports", "location": "Sheffield", "title": "Prutton poised for lengthy FA ban", "topic": "Prutton poised for lengthy FA ban"}, "type": "Feature"}, {"geometry": {"coordinates": [2.177432, 41.382894], "type": "Point"}, "properties": {"category": "sports", "location": "Barcelona", "title": "Mourinho receives Robson warning", "topic": "Mourinho receives Robson warning"}, "type": "Feature"}, {"geometry": {"coordinates": [69.17379, 34.532489], "type": "Point"}, "properties": {"category": "sports", "location": "UK Sport", "title": "Chelsea sack Mutu", "topic": "Chelsea sack Mutu"}, "type": "Feature"}, {"geometry": {"coordinates": [-53.2, -10.333333], "type": "Point"}, "properties": {"category": "sports", "location": "Brazil", "title": "Tevez - an Argentine in Brazil", "topic": "Tevez - an Argentine in Brazil"}, "type": "Feature"}, {"geometry": {"coordinates": [6.231168, 46.370935], "type": "Point"}, "properties": {"category": "sports", "location": "Uefa", "title": "Uefa approves fake grass", "topic": "Uefa approves fake grass"}, "type": "Feature"}, {"geometry": {"coordinates": [2.177432, 41.382894], "type": "Point"}, "properties": {"category": "sports", "location": "Barcelona", "title": "Ferguson puts faith in youngsters", "topic": "Ferguson puts faith in youngsters"}, "type": "Feature"}, {"geometry": {"coordinates": [-4.114052, 56.786111], "type": "Point"}, "properties": {"category": "sports", "location": "Scotland", "title": "Can Smith work Scottish wonders?", "topic": "Can Smith work Scottish wonders?"}, "type": "Feature"}, {"geometry": {"coordinates": [-3.703582, 40.416705], "type": "Point"}, "properties": {"category": "sports", "location": "Madrid", "title": "Edu blasts Arsenal", "topic": "Edu blasts Arsenal"}, "type": "Feature"}, {"geometry": {"coordinates": [6.988119, 51.032474], "type": "Point"}, "properties": {"category": "sports", "location": "Leverkusen", "title": "Kewell waits as injury drags on", "topic": "Kewell waits as injury drags on"}, "type": "Feature"}, {"geometry": {"coordinates": [-100.445882, 39.78373], "type": "Point"}, "properties": {"category": "sports", "location": "US", "title": "Irish duo could block Man Utd bid", "topic": "Irish duo could block Man Utd bid"}, "type": "Feature"}, {"geometry": {"coordinates": [16.489335, 49.533678], "type": "Point"}, "properties": {"category": "sports", "location": "Petrov", "title": "Clyde 0-5 Celtic", "topic": "Clyde 0-5 Celtic"}, "type": "Feature"}, {"geometry": {"coordinates": [-0.206077, 51.474422], "type": "Point"}, "properties": {"category": "sports", "location": "Fulham", "title": "Wenger shock at Newcastle dip", "topic": "Wenger shock at Newcastle dip"}, "type": "Feature"}, {"geometry": {"coordinates": [-3.703582, 40.416705], "type": "Point"}, "properties": {"category": "sports", "location": "Madrid", "title": "Bomb threat at Bernabeu stadium", "topic": "Bomb threat at Bernabeu stadium"}, "type": "Feature"}, {"geometry": {"coordinates": [-1.264906, 52.531021], "type": "Point"}, "properties": {"category": "sports", "location": "England", "title": "Anelka apologises for criticism", "topic": "Anelka apologises for criticism"}, "type": "Feature"}, {"geometry": {"coordinates": [-78.70797, 41.201141], "type": "Point"}, "properties": {"category": "sports", "location": "Moxey", "title": "Man Utd through after Exeter test", "topic": "Man Utd through after Exeter test"}, "type": "Feature"}, {"geometry": {"coordinates": [-75.209987, 40.691608], "type": "Point"}, "properties": {"category": "sports", "location": "Easton", "title": "Hearts 2-1 Livingston", "topic": "Hearts 2-1 Livingston"}, "type": "Feature"}, {"geometry": {"coordinates": [-91.338769, 38.674213], "type": "Point"}, "properties": {"category": "sports", "location": "Berger", "title": "Campbell rescues Arsenal", "topic": "Campbell rescues Arsenal"}, "type": "Feature"}, {"geometry": {"coordinates": [-8.702775, 51.842966], "type": "Point"}, "properties": {"category": "sports", "location": "Kilbane", "title": "Man Utd stroll to Cup win", "topic": "Man Utd stroll to Cup win"}, "type": "Feature"}, {"geometry": {"coordinates": [-1.264906, 52.531021], "type": "Point"}, "properties": {"category": "sports", "location": "England", "title": "Wenger rules out new keeper", "topic": "Wenger rules out new keeper"}, "type": "Feature"}, {"geometry": {"coordinates": [34.866765, 31.531311], "type": "Point"}, "properties": {"category": "sports", "location": "Israel", "title": "Iranian misses Israel match", "topic": "Iranian misses Israel match"}, "type": "Feature"}, {"geometry": {"coordinates": [-0.1084, 51.55504], "type": "Point"}, "properties": {"category": "sports", "location": "Ashburton Grove", "title": "Arsenal 'may seek full share listing'", "topic": "Arsenal 'may seek full share listing'"}, "type": "Feature"}, {"geometry": {"coordinates": [-0.206077, 51.474422], "type": "Point"}, "properties": {"category": "sports", "location": "Fulham", "title": "Ferguson rues failure to cut gap", "topic": "Ferguson rues failure to cut gap"}, "type": "Feature"}, {"geometry": {"coordinates": [0.004568, 51.528097], "type": "Point"}, "properties": {"category": "sports", "location": "West Ham", "title": "Bees handed potential Man Utd tie", "topic": "Bees handed potential Man Utd tie"}, "type": "Feature"}, {"geometry": {"coordinates": [-76.84228, 39.241578], "type": "Point"}, "properties": {"category": "sports", "location": "Aston Villa", "title": "Ferguson hails Man Utd's resolve", "topic": "Ferguson hails Man Utd's resolve"}, "type": "Feature"}, {"geometry": {"coordinates": [4.329653, 50.839098], "type": "Point"}, "properties": {"category": "sports", "location": "Anderlecht", "title": "Newcastle line up Babayaro", "topic": "Newcastle line up Babayaro"}, "type": "Feature"}, {"geometry": {"coordinates": [-1.613157, 54.973847], "type": "Point"}, "properties": {"category": "sports", "location": "Newcastle", "title": "Reds sink 10-man Magpies", "topic": "Reds sink 10-man Magpies"}, "type": "Feature"}, {"geometry": {"coordinates": [-1.544437, 53.801534], "type": "Point"}, "properties": {"category": "sports", "location": "Leeds United", "title": "Bates seals takeover", "topic": "Bates seals takeover"}, "type": "Feature"}, {"geometry": {"coordinates": [-107.628689, 49.962945], "type": "Point"}, "properties": {"category": "sports", "location": "Neville", "title": "Highbury tunnel players in clear", "topic": "Highbury tunnel players in clear"}, "type": "Feature"}, {"geometry": {"coordinates": [-100.445882, 39.78373], "type": "Point"}, "properties": {"category": "business", "location": "US", "title": "Slowdown hits US factory growth", "topic": "Slowdown hits US factory growth"}, "type": "Feature"}, {"geometry": {"coordinates": [-100.445882, 39.78373], "type": "Point"}, "properties": {"category": "business", "location": "US", "title": "US retail sales surge in December", "topic": "US retail sales surge in December"}, "type": "Feature"}, {"geometry": {"coordinates": [7.999972, 9.600036], "type": "Point"}, "properties": {"category": "business", "location": "Nigeria", "title": "Nigeria to boost cocoa production", "topic": "Nigeria to boost cocoa production"}, "type": "Feature"}, {"geometry": {"coordinates": [29.267547, 26.254049], "type": "Point"}, "properties": {"category": "business", "location": "Egypt", "title": "Egypt and Israel seal trade deal", "topic": "Egypt and Israel seal trade deal"}, "type": "Feature"}, {"geometry": {"coordinates": [-3.276575, 54.702354], "type": "Point"}, "properties": {"category": "business", "location": "UK", "title": "No seasonal lift for house market", "topic": "No seasonal lift for house market"}, "type": "Feature"}, {"geometry": {"coordinates": [-100.445882, 39.78373], "type": "Point"}, "properties": {"category": "business", "location": "US", "title": "US interest rates increased to 2%", "topic": "US interest rates increased to 2%"}, "type": "Feature"}, {"geometry": {"coordinates": [24.991639, -28.816624], "type": "Point"}, "properties": {"category": "business", "location": "South Africa", "title": "SA unveils 'more for all' budget", "topic": "SA unveils 'more for all' budget"}, "type": "Feature"}, {"geometry": {"coordinates": [-100.445882, 39.78373], "type": "Point"}, "properties": {"category": "business", "location": "US", "title": "Fed chief warning on US deficit", "topic": "Fed chief warning on US deficit"}, "type": "Feature"}, {"geometry": {"coordinates": [34.924965, 38.959759], "type": "Point"}, "properties": {"category": "business", "location": "Turkey", "title": "Turkey knocks six zeros off lira", "topic": "Turkey knocks six zeros off lira"}, "type": "Feature"}, {"geometry": {"coordinates": [-100.445882, 39.78373], "type": "Point"}, "properties": {"category": "business", "location": "US", "title": "Branson show flops on US screens", "topic": "Branson show flops on US screens"}, "type": "Feature"}, {"geometry": {"coordinates": [-100.445882, 39.78373], "type": "Point"}, "properties": {"category": "business", "location": "US", "title": "US adds more jobs than expected", "topic": "US adds more jobs than expected"}, "type": "Feature"}, {"geometry": {"coordinates": [104.999927, 35.000074], "type": "Point"}, "properties": {"category": "business", "location": "China", "title": "China continues rapid growth", "topic": "China continues rapid growth"}, "type": "Feature"}, {"geometry": {"coordinates": [139.239418, 36.574844], "type": "Point"}, "properties": {"category": "business", "location": "Japan", "title": "Tokyo says deflation 'controlled'", "topic": "Tokyo says deflation 'controlled'"}, "type": "Feature"}, {"geometry": {"coordinates": [-74.006015, 40.712728], "type": "Point"}, "properties": {"category": "business", "location": "New York", "title": "US bank 'loses' customer details", "topic": "US bank 'loses' customer details"}, "type": "Feature"}, {"geometry": {"coordinates": [-100.445882, 39.78373], "type": "Point"}, "properties": {"category": "business", "location": "US", "title": "Crude oil prices back above $50", "topic": "Crude oil prices back above $50"}, "type": "Feature"}, {"geometry": {"coordinates": [-73.783892, 2.889443], "type": "Point"}, "properties": {"category": "business", "location": "Colombia", "title": "Rich grab half Colombia poor fund", "topic": "Rich grab half Colombia poor fund"}, "type": "Feature"}, {"geometry": {"coordinates": [1.888334, 46.603354], "type": "Point"}, "properties": {"category": "business", "location": "France", "title": "Consumers drive French economy", "topic": "Consumers drive French economy"}, "type": "Feature"}, {"geometry": {"coordinates": [-3.276575, 54.702354], "type": "Point"}, "properties": {"category": "business", "location": "UK", "title": "M&S cuts prices by average of 24%", "topic": "M&S cuts prices by average of 24%"}, "type": "Feature"}, {"geometry": {"coordinates": [-3.276575, 54.702354], "type": "Point"}, "properties": {"category": "business", "location": "UK", "title": "House prices show slight increase", "topic": "House prices show slight increase"}, "type": "Feature"}, {"geometry": {"coordinates": [102.265682, 4.569375], "type": "Point"}, "properties": {"category": "business", "location": "Malaysia", "title": "Malaysia lifts Islamic bank limit", "topic": "Malaysia lifts Islamic bank limit"}, "type": "Feature"}, {"geometry": {"coordinates": [-100.445882, 39.78373], "type": "Point"}, "properties": {"category": "business", "location": "US", "title": "Mild winter drives US oil down 6%", "topic": "Mild winter drives US oil down 6%"}, "type": "Feature"}, {"geometry": {"coordinates": [100.83273, 14.897192], "type": "Point"}, "properties": {"category": "business", "location": "Thailand", "title": "Quake's economic costs emerging", "topic": "Quake's economic costs emerging"}, "type": "Feature"}, {"geometry": {"coordinates": [-100.445882, 39.78373], "type": "Point"}, "properties": {"category": "business", "location": "US", "title": "Wall Street cheers Bush victory", "topic": "Wall Street cheers Bush victory"}, "type": "Feature"}, {"geometry": {"coordinates": [34.866765, 31.531311], "type": "Point"}, "properties": {"category": "business", "location": "Israel", "title": "Israel looks to US for bank chief", "topic": "Israel looks to US for bank chief"}, "type": "Feature"}, {"geometry": {"coordinates": [-3.276575, 54.702354], "type": "Point"}, "properties": {"category": "business", "location": "UK", "title": "Sales 'fail to boost High Street'", "topic": "Sales 'fail to boost High Street'"}, "type": "Feature"}, {"geometry": {"coordinates": [10.423447, 51.08342], "type": "Point"}, "properties": {"category": "business", "location": "Germany", "title": "ECB holds rates amid growth fears", "topic": "ECB holds rates amid growth fears"}, "type": "Feature"}, {"geometry": {"coordinates": [-100.445882, 39.78373], "type": "Point"}, "properties": {"category": "business", "location": "US", "title": "Dollar hits new low versus euro", "topic": "Dollar hits new low versus euro"}, "type": "Feature"}, {"geometry": {"coordinates": [-100.445882, 39.78373], "type": "Point"}, "properties": {"category": "business", "location": "US", "title": "'Strong dollar' call halts slide", "topic": "'Strong dollar' call halts slide"}, "type": "Feature"}, {"geometry": {"coordinates": [-3.62161, 48.278804], "type": "Point"}, "properties": {"category": "business", "location": "Hartz", "title": "Germany nears 1990 jobless level", "topic": "Germany nears 1990 jobless level"}, "type": "Feature"}, {"geometry": {"coordinates": [-9.136592, 38.707751], "type": "Point"}, "properties": {"category": "business", "location": "Lisbon", "title": "Why few targets are better than many", "topic": "Why few targets are better than many"}, "type": "Feature"}, {"geometry": {"coordinates": [-100.445882, 39.78373], "type": "Point"}, "properties": {"category": "business", "location": "US", "title": "Minimum wage increased to \u00a35.05", "topic": "Minimum wage increased to \u00a35.05"}, "type": "Feature"}, {"geometry": {"coordinates": [-100.445882, 39.78373], "type": "Point"}, "properties": {"category": "business", "location": "US", "title": "Battered dollar hits another low", "topic": "Battered dollar hits another low"}, "type": "Feature"}, {"geometry": {"coordinates": [-3.276575, 54.702354], "type": "Point"}, "properties": {"category": "business", "location": "UK", "title": "UK's National Gallery in the pink", "topic": "UK's National Gallery in the pink"}, "type": "Feature"}, {"geometry": {"coordinates": [-3.276575, 54.702354], "type": "Point"}, "properties": {"category": "business", "location": "UK", "title": "Bank set to leave rates on hold", "topic": "Bank set to leave rates on hold"}, "type": "Feature"}, {"geometry": {"coordinates": [-100.445882, 39.78373], "type": "Point"}, "properties": {"category": "business", "location": "US", "title": "Dutch bank to lay off 2,850 staff", "topic": "Dutch bank to lay off 2,850 staff"}, "type": "Feature"}, {"geometry": {"coordinates": [-9.136592, 38.707751], "type": "Point"}, "properties": {"category": "business", "location": "Lisbon", "title": "EU 'too slow' on economic reforms", "topic": "EU 'too slow' on economic reforms"}, "type": "Feature"}, {"geometry": {"coordinates": [139.239418, 36.574844], "type": "Point"}, "properties": {"category": "business", "location": "Japan", "title": "Japan economy slides to recession", "topic": "Japan economy slides to recession"}, "type": "Feature"}, {"geometry": {"coordinates": [-100.445882, 39.78373], "type": "Point"}, "properties": {"category": "business", "location": "US", "title": "US trade deficit widens sharply", "topic": "US trade deficit widens sharply"}, "type": "Feature"}, {"geometry": {"coordinates": [-3.276575, 54.702354], "type": "Point"}, "properties": {"category": "business", "location": "UK", "title": "Trade gap narrows as exports rise", "topic": "Trade gap narrows as exports rise"}, "type": "Feature"}, {"geometry": {"coordinates": [34.924965, 38.959759], "type": "Point"}, "properties": {"category": "business", "location": "Turkey", "title": "IMF agrees fresh Turkey funding", "topic": "IMF agrees fresh Turkey funding"}, "type": "Feature"}, {"geometry": {"coordinates": [104.999927, 35.000074], "type": "Point"}, "properties": {"category": "business", "location": "China", "title": "Europe asks Asia for euro help", "topic": "Europe asks Asia for euro help"}, "type": "Feature"}, {"geometry": {"coordinates": [-100.445882, 39.78373], "type": "Point"}, "properties": {"category": "business", "location": "US", "title": "US crude prices surge above $53", "topic": "US crude prices surge above $53"}, "type": "Feature"}, {"geometry": {"coordinates": [-3.276575, 54.702354], "type": "Point"}, "properties": {"category": "business", "location": "UK", "title": "Manufacturing recovery 'slowing'", "topic": "Manufacturing recovery 'slowing'"}, "type": "Feature"}, {"geometry": {"coordinates": [-77.696936, 39.252879], "type": "Point"}, "properties": {"category": "business", "location": "Britain", "title": "Bank holds interest rate at 4.75%", "topic": "Bank holds interest rate at 4.75%"}, "type": "Feature"}, {"geometry": {"coordinates": [44.174977, 33.095579], "type": "Point"}, "properties": {"category": "business", "location": "Iraq", "title": "Iraqi voters turn to economic issues", "topic": "Iraqi voters turn to economic issues"}, "type": "Feature"}, {"geometry": {"coordinates": [-7.97946, 52.865196], "type": "Point"}, "properties": {"category": "business", "location": "Ireland", "title": "Irish markets reach all-time high", "topic": "Irish markets reach all-time high"}, "type": "Feature"}, {"geometry": {"coordinates": [-100.445882, 39.78373], "type": "Point"}, "properties": {"category": "business", "location": "US", "title": "Housewives lift Channel 4 ratings", "topic": "Housewives lift Channel 4 ratings"}, "type": "Feature"}, {"geometry": {"coordinates": [-1.264906, 52.531021], "type": "Point"}, "properties": {"category": "business", "location": "England", "title": "'More to do' on adult literacy", "topic": "'More to do' on adult literacy"}, "type": "Feature"}, {"geometry": {"coordinates": [-100.445882, 39.78373], "type": "Point"}, "properties": {"category": "business", "location": "US", "title": "EastEnders 'is set for US remake'", "topic": "EastEnders 'is set for US remake'"}, "type": "Feature"}, {"geometry": {"coordinates": [139.239418, 36.574844], "type": "Point"}, "properties": {"category": "business", "location": "Japan", "title": "Business confidence dips in Japan", "topic": "Business confidence dips in Japan"}, "type": "Feature"}, {"geometry": {"coordinates": [139.239418, 36.574844], "type": "Point"}, "properties": {"category": "business", "location": "Japan", "title": "Japan's ageing workforce: built to last", "topic": "Japan's ageing workforce: built to last"}, "type": "Feature"}, {"geometry": {"coordinates": [139.239418, 36.574844], "type": "Point"}, "properties": {"category": "business", "location": "Japan", "title": "Industrial output falls in Japan", "topic": "Industrial output falls in Japan"}, "type": "Feature"}, {"geometry": {"coordinates": [139.239418, 36.574844], "type": "Point"}, "properties": {"category": "business", "location": "Japan", "title": "Stock market eyes Japan recovery", "topic": "Stock market eyes Japan recovery"}, "type": "Feature"}, {"geometry": {"coordinates": [-100.445882, 39.78373], "type": "Point"}, "properties": {"category": "business", "location": "US", "title": "US industrial output growth eases", "topic": "US industrial output growth eases"}, "type": "Feature"}, {"geometry": {"coordinates": [-53.2, -10.333333], "type": "Point"}, "properties": {"category": "business", "location": "Brazil", "title": "Brazil jobless rate hits new low", "topic": "Brazil jobless rate hits new low"}, "type": "Feature"}, {"geometry": {"coordinates": [-3.276575, 54.702354], "type": "Point"}, "properties": {"category": "business", "location": "UK", "title": "UK young top Euro earnings league", "topic": "UK young top Euro earnings league"}, "type": "Feature"}, {"geometry": {"coordinates": [-3.276575, 54.702354], "type": "Point"}, "properties": {"category": "business", "location": "UK", "title": "Economy 'stronger than forecast'", "topic": "Economy 'stronger than forecast'"}, "type": "Feature"}, {"geometry": {"coordinates": [-100.445882, 39.78373], "type": "Point"}, "properties": {"category": "business", "location": "US", "title": "US economy shows solid GDP growth", "topic": "US economy shows solid GDP growth"}, "type": "Feature"}, {"geometry": {"coordinates": [90.293243, 24.476878], "type": "Point"}, "properties": {"category": "business", "location": "Bangladesh", "title": "Millions 'to lose textile jobs'", "topic": "Millions 'to lose textile jobs'"}, "type": "Feature"}, {"geometry": {"coordinates": [104.999927, 35.000074], "type": "Point"}, "properties": {"category": "business", "location": "China", "title": "China continues breakneck growth", "topic": "China continues breakneck growth"}, "type": "Feature"}, {"geometry": {"coordinates": [-100.445882, 39.78373], "type": "Point"}, "properties": {"category": "business", "location": "US", "title": "The 'ticking budget' facing the US", "topic": "The 'ticking budget' facing the US"}, "type": "Feature"}, {"geometry": {"coordinates": [-100.445882, 39.78373], "type": "Point"}, "properties": {"category": "business", "location": "US", "title": "Mexican in US send $16bn home", "topic": "Mexican in US send $16bn home"}, "type": "Feature"}, {"geometry": {"coordinates": [-64.967282, -34.996496], "type": "Point"}, "properties": {"category": "business", "location": "Argentina", "title": "Fresh hope after Argentine crisis", "topic": "Fresh hope after Argentine crisis"}, "type": "Feature"}, {"geometry": {"coordinates": [-100.445882, 39.78373], "type": "Point"}, "properties": {"category": "business", "location": "US", "title": "Lesotho textile workers lose jobs", "topic": "Lesotho textile workers lose jobs"}, "type": "Feature"}, {"geometry": {"coordinates": [104.999927, 35.000074], "type": "Point"}, "properties": {"category": "business", "location": "China", "title": "BBC poll indicates economic gloom", "topic": "BBC poll indicates economic gloom"}, "type": "Feature"}, {"geometry": {"coordinates": [-3.276575, 54.702354], "type": "Point"}, "properties": {"category": "business", "location": "UK", "title": "Christmas sales worst since 1981", "topic": "Christmas sales worst since 1981"}, "type": "Feature"}, {"geometry": {"coordinates": [-3.276575, 54.702354], "type": "Point"}, "properties": {"category": "business", "location": "UK", "title": "Barclays profits hit record level", "topic": "Barclays profits hit record level"}, "type": "Feature"}, {"geometry": {"coordinates": [-3.276575, 54.702354], "type": "Point"}, "properties": {"category": "business", "location": "UK", "title": "Home loan approvals rising again", "topic": "Home loan approvals rising again"}, "type": "Feature"}, {"geometry": {"coordinates": [12.674297, 42.638426], "type": "Point"}, "properties": {"category": "business", "location": "Italy", "title": "Italy to get economic action plan", "topic": "Italy to get economic action plan"}, "type": "Feature"}, {"geometry": {"coordinates": [-3.276575, 54.702354], "type": "Point"}, "properties": {"category": "business", "location": "UK", "title": "UK economy facing 'major risks'", "topic": "UK economy facing 'major risks'"}, "type": "Feature"}, {"geometry": {"coordinates": [-3.276575, 54.702354], "type": "Point"}, "properties": {"category": "business", "location": "UK", "title": "UK homes hit \u00a33.3 trillion total", "topic": "UK homes hit \u00a33.3 trillion total"}, "type": "Feature"}, {"geometry": {"coordinates": [-77.696936, 39.252879], "type": "Point"}, "properties": {"category": "business", "location": "Britain", "title": "UK interest rates held at 4.75%", "topic": "UK interest rates held at 4.75%"}, "type": "Feature"}, {"geometry": {"coordinates": [139.239418, 36.574844], "type": "Point"}, "properties": {"category": "business", "location": "Japan", "title": "Asian banks halt dollar's slide", "topic": "Asian banks halt dollar's slide"}, "type": "Feature"}, {"geometry": {"coordinates": [-100.445882, 39.78373], "type": "Point"}, "properties": {"category": "business", "location": "US", "title": "US manufacturing expands", "topic": "US manufacturing expands"}, "type": "Feature"}, {"geometry": {"coordinates": [-100.445882, 39.78373], "type": "Point"}, "properties": {"category": "business", "location": "US", "title": "Dollar slides ahead of New Year", "topic": "Dollar slides ahead of New Year"}, "type": "Feature"}, {"geometry": {"coordinates": [-100.445882, 39.78373], "type": "Point"}, "properties": {"category": "business", "location": "US", "title": "US interest rate rise expected", "topic": "US interest rate rise expected"}, "type": "Feature"}, {"geometry": {"coordinates": [29.267547, 26.254049], "type": "Point"}, "properties": {"category": "business", "location": "Egypt", "title": "Egypt to sell off state-owned bank", "topic": "Egypt to sell off state-owned bank"}, "type": "Feature"}, {"geometry": {"coordinates": [139.759455, 35.682839], "type": "Point"}, "properties": {"category": "business", "location": "Tokyo", "title": "Industrial revival hope for Japan", "topic": "Industrial revival hope for Japan"}, "type": "Feature"}, {"geometry": {"coordinates": [-3.276575, 54.702354], "type": "Point"}, "properties": {"category": "business", "location": "UK", "title": "UK 'risks breaking golden rule'", "topic": "UK 'risks breaking golden rule'"}, "type": "Feature"}, {"geometry": {"coordinates": [104.999927, 35.000074], "type": "Point"}, "properties": {"category": "business", "location": "China", "title": "Yangtze Electric's profits double", "topic": "Yangtze Electric's profits double"}, "type": "Feature"}, {"geometry": {"coordinates": [103.819499, 1.357107], "type": "Point"}, "properties": {"category": "business", "location": "Singapore", "title": "Singapore growth at 8.1% in 2004", "topic": "Singapore growth at 8.1% in 2004"}, "type": "Feature"}, {"geometry": {"coordinates": [-80.832875, 23.013134], "type": "Point"}, "properties": {"category": "business", "location": "Cuba", "title": "Cuba winds back economic clock", "topic": "Cuba winds back economic clock"}, "type": "Feature"}, {"geometry": {"coordinates": [-3.276575, 54.702354], "type": "Point"}, "properties": {"category": "business", "location": "UK", "title": "Economy 'strong' in election year", "topic": "Economy 'strong' in election year"}, "type": "Feature"}, {"geometry": {"coordinates": [80.713785, 7.555494], "type": "Point"}, "properties": {"category": "business", "location": "Sri Lanka", "title": "Tsunami 'to hit Sri Lanka banks'", "topic": "Tsunami 'to hit Sri Lanka banks'"}, "type": "Feature"}, {"geometry": {"coordinates": [-100.445882, 39.78373], "type": "Point"}, "properties": {"category": "business", "location": "US", "title": "Dollar gains on Greenspan speech", "topic": "Dollar gains on Greenspan speech"}, "type": "Feature"}, {"geometry": {"coordinates": [104.999927, 35.000074], "type": "Point"}, "properties": {"category": "business", "location": "China", "title": "China keeps tight rein on credit", "topic": "China keeps tight rein on credit"}, "type": "Feature"}, {"geometry": {"coordinates": [-100.445882, 39.78373], "type": "Point"}, "properties": {"category": "business", "location": "US", "title": "Dollar hovers around record lows", "topic": "Dollar hovers around record lows"}, "type": "Feature"}, {"geometry": {"coordinates": [-71.31877, -31.761336], "type": "Point"}, "properties": {"category": "business", "location": "Chile", "title": "Record year for Chilean copper", "topic": "Record year for Chilean copper"}, "type": "Feature"}, {"geometry": {"coordinates": [-100.445882, 39.78373], "type": "Point"}, "properties": {"category": "business", "location": "US", "title": "Oil rebounds from weather effect", "topic": "Oil rebounds from weather effect"}, "type": "Feature"}, {"geometry": {"coordinates": [-3.276575, 54.702354], "type": "Point"}, "properties": {"category": "business", "location": "UK", "title": "Small firms 'hit by rising costs'", "topic": "Small firms 'hit by rising costs'"}, "type": "Feature"}, {"geometry": {"coordinates": [-3.276575, 54.702354], "type": "Point"}, "properties": {"category": "business", "location": "UK", "title": "Golden rule boost for Chancellor", "topic": "Golden rule boost for Chancellor"}, "type": "Feature"}, {"geometry": {"coordinates": [10.423447, 51.08342], "type": "Point"}, "properties": {"category": "business", "location": "Germany", "title": "Business fears over sluggish EU economy", "topic": "Business fears over sluggish EU economy"}, "type": "Feature"}, {"geometry": {"coordinates": [-100.445882, 39.78373], "type": "Point"}, "properties": {"category": "business", "location": "US", "title": "Mixed Christmas for US retailers", "topic": "Mixed Christmas for US retailers"}, "type": "Feature"}, {"geometry": {"coordinates": [78.667743, 22.351115], "type": "Point"}, "properties": {"category": "business", "location": "India", "title": "India calls for fair trade rules", "topic": "India calls for fair trade rules"}, "type": "Feature"}, {"geometry": {"coordinates": [10.423447, 51.08342], "type": "Point"}, "properties": {"category": "business", "location": "Germany", "title": "German economy rebounds", "topic": "German economy rebounds"}, "type": "Feature"}, {"geometry": {"coordinates": [-100.445882, 39.78373], "type": "Point"}, "properties": {"category": "business", "location": "US", "title": "US consumer confidence up", "topic": "US consumer confidence up"}, "type": "Feature"}, {"geometry": {"coordinates": [-100.445882, 39.78373], "type": "Point"}, "properties": {"category": "business", "location": "US", "title": "Steady job growth continues in US", "topic": "Steady job growth continues in US"}, "type": "Feature"}, {"geometry": {"coordinates": [-100.445882, 39.78373], "type": "Point"}, "properties": {"category": "business", "location": "US", "title": "Fed warns of more US rate rises", "topic": "Fed warns of more US rate rises"}, "type": "Feature"}, {"geometry": {"coordinates": [44.174977, 33.095579], "type": "Point"}, "properties": {"category": "business", "location": "Iraq", "title": "Bush to outline 'toughest' budget", "topic": "Bush to outline 'toughest' budget"}, "type": "Feature"}, {"geometry": {"coordinates": [34.866765, 31.531311], "type": "Point"}, "properties": {"category": "business", "location": "Israel", "title": "Israeli economy picking up pace", "topic": "Israeli economy picking up pace"}, "type": "Feature"}, {"geometry": {"coordinates": [-3.276575, 54.702354], "type": "Point"}, "properties": {"category": "business", "location": "UK", "title": "House prices suffer festive fall", "topic": "House prices suffer festive fall"}, "type": "Feature"}, {"geometry": {"coordinates": [104.999927, 35.000074], "type": "Point"}, "properties": {"category": "business", "location": "China", "title": "Chinese exports rise 25% in 2004", "topic": "Chinese exports rise 25% in 2004"}, "type": "Feature"}, {"geometry": {"coordinates": [71.247499, 30.33084], "type": "Point"}, "properties": {"category": "business", "location": "Pakistan", "title": "Karachi stocks hit historic high", "topic": "Karachi stocks hit historic high"}, "type": "Feature"}, {"geometry": {"coordinates": [-100.445882, 39.78373], "type": "Point"}, "properties": {"category": "business", "location": "US", "title": "Dollar drops on reserves concerns", "topic": "Dollar drops on reserves concerns"}, "type": "Feature"}, {"geometry": {"coordinates": [-100.445882, 39.78373], "type": "Point"}, "properties": {"category": "business", "location": "US", "title": "Gold falls on IMF sale concerns", "topic": "Gold falls on IMF sale concerns"}, "type": "Feature"}, {"geometry": {"coordinates": [139.239418, 36.574844], "type": "Point"}, "properties": {"category": "business", "location": "Japan", "title": "Japan narrowly escapes recession", "topic": "Japan narrowly escapes recession"}, "type": "Feature"}, {"geometry": {"coordinates": [117.890285, -2.483383], "type": "Point"}, "properties": {"category": "business", "location": "Indonesia", "title": "Indonesians face fuel price rise", "topic": "Indonesians face fuel price rise"}, "type": "Feature"}, {"geometry": {"coordinates": [-100.445882, 39.78373], "type": "Point"}, "properties": {"category": "business", "location": "US", "title": "Newest EU members underpin growth", "topic": "Newest EU members underpin growth"}, "type": "Feature"}, {"geometry": {"coordinates": [46.441642, -18.92496], "type": "Point"}, "properties": {"category": "business", "location": "Madagascar", "title": "Madagascar completes currency switch", "topic": "Madagascar completes currency switch"}, "type": "Feature"}, {"geometry": {"coordinates": [-3.276575, 54.702354], "type": "Point"}, "properties": {"category": "business", "location": "UK", "title": "UK house prices dip in November", "topic": "UK house prices dip in November"}, "type": "Feature"}, {"geometry": {"coordinates": [-3.276575, 54.702354], "type": "Point"}, "properties": {"category": "business", "location": "UK", "title": "'Post-Christmas lull' in lending", "topic": "'Post-Christmas lull' in lending"}, "type": "Feature"}, {"geometry": {"coordinates": [1.888334, 46.603354], "type": "Point"}, "properties": {"category": "business", "location": "France", "title": "Mixed signals from French economy", "topic": "Mixed signals from French economy"}, "type": "Feature"}, {"geometry": {"coordinates": [104.999927, 35.000074], "type": "Point"}, "properties": {"category": "business", "location": "China", "title": "US trade gap ballooned in October", "topic": "US trade gap ballooned in October"}, "type": "Feature"}, {"geometry": {"coordinates": [80.713785, 7.555494], "type": "Point"}, "properties": {"category": "business", "location": "Sri Lanka", "title": "Tsunami to cost Sri Lanka $1.3bn", "topic": "Tsunami to cost Sri Lanka $1.3bn"}, "type": "Feature"}, {"geometry": {"coordinates": [-100.445882, 39.78373], "type": "Point"}, "properties": {"category": "business", "location": "US", "title": "Consumer spending lifts US growth", "topic": "Consumer spending lifts US growth"}, "type": "Feature"}, {"geometry": {"coordinates": [78.667743, 22.351115], "type": "Point"}, "properties": {"category": "business", "location": "India", "title": "India unveils anti-poverty budget", "topic": "India unveils anti-poverty budget"}, "type": "Feature"}, {"geometry": {"coordinates": [38.65212, 10.21167], "type": "Point"}, "properties": {"category": "business", "location": "Ethiopia", "title": "Ethiopia's crop production up 24%", "topic": "Ethiopia's crop production up 24%"}, "type": "Feature"}, {"geometry": {"coordinates": [2.308628, 48.816556], "type": "Point"}, "properties": {"category": "business", "location": "INSEE", "title": "Weak data buffets French economy", "topic": "Weak data buffets French economy"}, "type": "Feature"}, {"geometry": {"coordinates": [-3.15823, 56.111022], "type": "Point"}, "properties": {"category": "business", "location": "Kirkcaldy", "title": "US bank boss hails 'genius' Smith", "topic": "US bank boss hails 'genius' Smith"}, "type": "Feature"}, {"geometry": {"coordinates": [12.674297, 42.638426], "type": "Point"}, "properties": {"category": "business", "location": "Italy", "title": "French consumer spending rising", "topic": "French consumer spending rising"}, "type": "Feature"}, {"geometry": {"coordinates": [-3.276575, 54.702354], "type": "Point"}, "properties": {"category": "business", "location": "UK", "title": "House prices rebound says Halifax", "topic": "House prices rebound says Halifax"}, "type": "Feature"}, {"geometry": {"coordinates": [1.888334, 46.603354], "type": "Point"}, "properties": {"category": "business", "location": "France", "title": "EC calls truce in deficit battle", "topic": "EC calls truce in deficit battle"}, "type": "Feature"}, {"geometry": {"coordinates": [10.423447, 51.08342], "type": "Point"}, "properties": {"category": "business", "location": "Germany", "title": "Sluggish economy hits German jobs", "topic": "Sluggish economy hits German jobs"}, "type": "Feature"}, {"geometry": {"coordinates": [-100.445882, 39.78373], "type": "Point"}, "properties": {"category": "business", "location": "US", "title": "Bush budget seeks deep cutbacks", "topic": "Bush budget seeks deep cutbacks"}, "type": "Feature"}, {"geometry": {"coordinates": [-66.110932, 8.001871], "type": "Point"}, "properties": {"category": "business", "location": "Venezuela", "title": "Latin America sees strong growth", "topic": "Latin America sees strong growth"}, "type": "Feature"}, {"geometry": {"coordinates": [-3.276575, 54.702354], "type": "Point"}, "properties": {"category": "business", "location": "UK", "title": "UK economy ends year with spurt", "topic": "UK economy ends year with spurt"}, "type": "Feature"}, {"geometry": {"coordinates": [78.667743, 22.351115], "type": "Point"}, "properties": {"category": "business", "location": "India", "title": "India-Pakistan peace boosts trade", "topic": "India-Pakistan peace boosts trade"}, "type": "Feature"}, {"geometry": {"coordinates": [-100.445882, 39.78373], "type": "Point"}, "properties": {"category": "business", "location": "US", "title": "Cars pull down US retail figures", "topic": "Cars pull down US retail figures"}, "type": "Feature"}, {"geometry": {"coordinates": [10.423447, 51.08342], "type": "Point"}, "properties": {"category": "business", "location": "Germany", "title": "IMF 'cuts' German growth estimate", "topic": "IMF 'cuts' German growth estimate"}, "type": "Feature"}, {"geometry": {"coordinates": [10.423447, 51.08342], "type": "Point"}, "properties": {"category": "business", "location": "Germany", "title": "German growth goes into reverse", "topic": "German growth goes into reverse"}, "type": "Feature"}, {"geometry": {"coordinates": [104.999927, 35.000074], "type": "Point"}, "properties": {"category": "business", "location": "China", "title": "Millions go missing at China bank", "topic": "Millions go missing at China bank"}, "type": "Feature"}, {"geometry": {"coordinates": [-100.445882, 39.78373], "type": "Point"}, "properties": {"category": "business", "location": "US", "title": "US budget deficit to reach $368bn", "topic": "US budget deficit to reach $368bn"}, "type": "Feature"}, {"geometry": {"coordinates": [-100.445882, 39.78373], "type": "Point"}, "properties": {"category": "business", "location": "US", "title": "US economy still growing says Fed", "topic": "US economy still growing says Fed"}, "type": "Feature"}, {"geometry": {"coordinates": [-53.2, -10.333333], "type": "Point"}, "properties": {"category": "business", "location": "Brazil", "title": "Brazil approves bankruptcy reform", "topic": "Brazil approves bankruptcy reform"}, "type": "Feature"}, {"geometry": {"coordinates": [-100.445882, 39.78373], "type": "Point"}, "properties": {"category": "business", "location": "US", "title": "Libya takes $1bn in unfrozen funds", "topic": "Libya takes $1bn in unfrozen funds"}, "type": "Feature"}, {"geometry": {"coordinates": [-100.445882, 39.78373], "type": "Point"}, "properties": {"category": "business", "location": "US", "title": "Markets fall on weak dollar fears", "topic": "Markets fall on weak dollar fears"}, "type": "Feature"}, {"geometry": {"coordinates": [-100.445882, 39.78373], "type": "Point"}, "properties": {"category": "business", "location": "US", "title": "JP Morgan admits US slavery links", "topic": "JP Morgan admits US slavery links"}, "type": "Feature"}, {"geometry": {"coordinates": [-100.445882, 39.78373], "type": "Point"}, "properties": {"category": "business", "location": "US", "title": "Oil prices fall back from highs", "topic": "Oil prices fall back from highs"}, "type": "Feature"}, {"geometry": {"coordinates": [10.423447, 51.08342], "type": "Point"}, "properties": {"category": "business", "location": "Germany", "title": "German business confidence slides", "topic": "German business confidence slides"}, "type": "Feature"}, {"geometry": {"coordinates": [127.696119, 36.638392], "type": "Point"}, "properties": {"category": "business", "location": "South Korea", "title": "S Korean consumers spending again", "topic": "S Korean consumers spending again"}, "type": "Feature"}, {"geometry": {"coordinates": [2.999983, 28.000027], "type": "Point"}, "properties": {"category": "business", "location": "Algeria", "title": "Algeria hit by further gas riots", "topic": "Algeria hit by further gas riots"}, "type": "Feature"}, {"geometry": {"coordinates": [-100.445882, 39.78373], "type": "Point"}, "properties": {"category": "business", "location": "US", "title": "Bush to get 'tough' on deficit", "topic": "Bush to get 'tough' on deficit"}, "type": "Feature"}, {"geometry": {"coordinates": [-2.733823, 53.348863], "type": "Point"}, "properties": {"category": "business", "location": "the West Bank", "title": "Palestinian economy in decline", "topic": "Palestinian economy in decline"}, "type": "Feature"}, {"geometry": {"coordinates": [-100.445882, 39.78373], "type": "Point"}, "properties": {"category": "business", "location": "US", "title": "Europe blames US over weak dollar", "topic": "Europe blames US over weak dollar"}, "type": "Feature"}, {"geometry": {"coordinates": [-100.445882, 39.78373], "type": "Point"}, "properties": {"category": "business", "location": "US", "title": "Oil prices reach three-month low", "topic": "Oil prices reach three-month low"}, "type": "Feature"}, {"geometry": {"coordinates": [24.991639, -28.816624], "type": "Point"}, "properties": {"category": "business", "location": "South Africa", "title": "South African car demand surges", "topic": "South African car demand surges"}, "type": "Feature"}, {"geometry": {"coordinates": [127.696119, 36.638392], "type": "Point"}, "properties": {"category": "business", "location": "South Korea", "title": "S Korea spending boost to economy", "topic": "S Korea spending boost to economy"}, "type": "Feature"}, {"geometry": {"coordinates": [117.890285, -2.483383], "type": "Point"}, "properties": {"category": "business", "location": "Indonesia", "title": "Asia quake increases poverty risk", "topic": "Asia quake increases poverty risk"}, "type": "Feature"}, {"geometry": {"coordinates": [-3.73893, 52.292812], "type": "Point"}, "properties": {"category": "business", "location": "Wales", "title": "Survey confirms property slowdown", "topic": "Survey confirms property slowdown"}, "type": "Feature"}, {"geometry": {"coordinates": [-4.114052, 56.786111], "type": "Point"}, "properties": {"category": "business", "location": "Scotland", "title": "House prices drop as sales slow", "topic": "House prices drop as sales slow"}, "type": "Feature"}, {"geometry": {"coordinates": [10.423447, 51.08342], "type": "Point"}, "properties": {"category": "business", "location": "Germany", "title": "Five million Germans out of work", "topic": "Five million Germans out of work"}, "type": "Feature"}, {"geometry": {"coordinates": [114.162813, 22.279328], "type": "Point"}, "properties": {"category": "business", "location": "Hong Kong", "title": "Asia shares defy post-quake gloom", "topic": "Asia shares defy post-quake gloom"}, "type": "Feature"}, {"geometry": {"coordinates": [104.999927, 35.000074], "type": "Point"}, "properties": {"category": "business", "location": "China", "title": "China now top trader with Japan", "topic": "China now top trader with Japan"}, "type": "Feature"}, {"geometry": {"coordinates": [-100.445882, 39.78373], "type": "Point"}, "properties": {"category": "business", "location": "US", "title": "Jobs growth still slow in the US", "topic": "Jobs growth still slow in the US"}, "type": "Feature"}, {"geometry": {"coordinates": [-100.445882, 39.78373], "type": "Point"}, "properties": {"category": "business", "location": "US", "title": "US data sparks inflation worries", "topic": "US data sparks inflation worries"}, "type": "Feature"}, {"geometry": {"coordinates": [-3.276575, 54.702354], "type": "Point"}, "properties": {"category": "business", "location": "UK", "title": "'Golden economic period' to end", "topic": "'Golden economic period' to end"}, "type": "Feature"}, {"geometry": {"coordinates": [-3.276575, 54.702354], "type": "Point"}, "properties": {"category": "business", "location": "UK", "title": "Optimism remains over UK housing", "topic": "Optimism remains over UK housing"}, "type": "Feature"}, {"geometry": {"coordinates": [80.713785, 7.555494], "type": "Point"}, "properties": {"category": "business", "location": "Sri Lanka", "title": "Tsunami slows Sri Lanka's growth", "topic": "Tsunami slows Sri Lanka's growth"}, "type": "Feature"}, {"geometry": {"coordinates": [-100.445882, 39.78373], "type": "Point"}, "properties": {"category": "business", "location": "US", "title": "Winter freeze keeps oil above $50", "topic": "Winter freeze keeps oil above $50"}, "type": "Feature"}, {"geometry": {"coordinates": [-3.276575, 54.702354], "type": "Point"}, "properties": {"category": "business", "location": "UK", "title": "Christmas shoppers flock to tills", "topic": "Christmas shoppers flock to tills"}, "type": "Feature"}, {"geometry": {"coordinates": [139.239418, 36.574844], "type": "Point"}, "properties": {"category": "business", "location": "Japan", "title": "Japanese growth grinds to a halt", "topic": "Japanese growth grinds to a halt"}, "type": "Feature"}, {"geometry": {"coordinates": [134.755, -24.776109], "type": "Point"}, "properties": {"category": "business", "location": "Australia", "title": "Australia rates at four year high", "topic": "Australia rates at four year high"}, "type": "Feature"}, {"geometry": {"coordinates": [-3.276575, 54.702354], "type": "Point"}, "properties": {"category": "business", "location": "UK", "title": "Retail sales show festive fervour", "topic": "Retail sales show festive fervour"}, "type": "Feature"}, {"geometry": {"coordinates": [-53.2, -10.333333], "type": "Point"}, "properties": {"category": "business", "location": "Brazil", "title": "Markets signal Brazilian recovery", "topic": "Markets signal Brazilian recovery"}, "type": "Feature"}, {"geometry": {"coordinates": [34.924965, 38.959759], "type": "Point"}, "properties": {"category": "business", "location": "Turkey", "title": "Turkey turns on the economic charm", "topic": "Turkey turns on the economic charm"}, "type": "Feature"}, {"geometry": {"coordinates": [-3.276575, 54.702354], "type": "Point"}, "properties": {"category": "business", "location": "UK", "title": "Further rise in UK jobless total", "topic": "Further rise in UK jobless total"}, "type": "Feature"}, {"geometry": {"coordinates": [-3.276575, 54.702354], "type": "Point"}, "properties": {"category": "business", "location": "UK", "title": "Bank voted 8-1 for no rate change", "topic": "Bank voted 8-1 for no rate change"}, "type": "Feature"}, {"geometry": {"coordinates": [-100.445882, 39.78373], "type": "Point"}, "properties": {"category": "business", "location": "US", "title": "US trade gap hits record in 2004", "topic": "US trade gap hits record in 2004"}, "type": "Feature"}, {"geometry": {"coordinates": [104.999927, 35.000074], "type": "Point"}, "properties": {"category": "business", "location": "China", "title": "Soaring oil 'hits world economy'", "topic": "Soaring oil 'hits world economy'"}, "type": "Feature"}, {"geometry": {"coordinates": [10.423447, 51.08342], "type": "Point"}, "properties": {"category": "business", "location": "Germany", "title": "German jobless rate at new record", "topic": "German jobless rate at new record"}, "type": "Feature"}, {"geometry": {"coordinates": [78.667743, 22.351115], "type": "Point"}, "properties": {"category": "business", "location": "India", "title": "India's rupee hits five-year high", "topic": "India's rupee hits five-year high"}, "type": "Feature"}, {"geometry": {"coordinates": [-0.127647, 51.507322], "type": "Point"}, "properties": {"category": "entertainment", "location": "London", "title": "Stars shine on Bafta red carpet", "topic": "Stars shine on Bafta red carpet"}, "type": "Feature"}, {"geometry": {"coordinates": [-74.006015, 40.712728], "type": "Point"}, "properties": {"category": "entertainment", "location": "New York", "title": "Hitch holds on to US box office", "topic": "Hitch holds on to US box office"}, "type": "Feature"}, {"geometry": {"coordinates": [-3.276575, 54.702354], "type": "Point"}, "properties": {"category": "entertainment", "location": "UK", "title": "Ethnic producers 'face barriers'", "topic": "Ethnic producers 'face barriers'"}, "type": "Feature"}, {"geometry": {"coordinates": [-100.445882, 39.78373], "type": "Point"}, "properties": {"category": "entertainment", "location": "US", "title": "Tarantino to direct CSI episode", "topic": "Tarantino to direct CSI episode"}, "type": "Feature"}, {"geometry": {"coordinates": [0.21807, 51.444306], "type": "Point"}, "properties": {"category": "entertainment", "location": "Dartford", "title": "Arnold congratulated on Oscar win", "topic": "Arnold congratulated on Oscar win"}, "type": "Feature"}, {"geometry": {"coordinates": [-0.274163, 51.658726], "type": "Point"}, "properties": {"category": "entertainment", "location": "Holby City", "title": "McCririck out of Big Brother show", "topic": "McCririck out of Big Brother show"}, "type": "Feature"}, {"geometry": {"coordinates": [-100.445882, 39.78373], "type": "Point"}, "properties": {"category": "entertainment", "location": "US", "title": "Shark Tale DVD is US best-seller", "topic": "Shark Tale DVD is US best-seller"}, "type": "Feature"}, {"geometry": {"coordinates": [-100.445882, 39.78373], "type": "Point"}, "properties": {"category": "entertainment", "location": "US", "title": "A-listers flock to Gervais sitcom", "topic": "A-listers flock to Gervais sitcom"}, "type": "Feature"}, {"geometry": {"coordinates": [-86.916661, 33.637883], "type": "Point"}, "properties": {"category": "entertainment", "location": "Brookside", "title": "Brookside actress Keaveney dies", "topic": "Brookside actress Keaveney dies"}, "type": "Feature"}, {"geometry": {"coordinates": [-100.445882, 39.78373], "type": "Point"}, "properties": {"category": "entertainment", "location": "US", "title": "Last Star Wars 'not for children'", "topic": "Last Star Wars 'not for children'"}, "type": "Feature"}, {"geometry": {"coordinates": [-3.276575, 54.702354], "type": "Point"}, "properties": {"category": "entertainment", "location": "UK", "title": "Bafta to hand out movie honours", "topic": "Bafta to hand out movie honours"}, "type": "Feature"}, {"geometry": {"coordinates": [-0.127647, 51.507322], "type": "Point"}, "properties": {"category": "entertainment", "location": "London", "title": "Levy takes Whitbread novel prize", "topic": "Levy takes Whitbread novel prize"}, "type": "Feature"}, {"geometry": {"coordinates": [-3.276575, 54.702354], "type": "Point"}, "properties": {"category": "entertainment", "location": "UK", "title": "Levy tipped for Whitbread prize", "topic": "Levy tipped for Whitbread prize"}, "type": "Feature"}, {"geometry": {"coordinates": [0.0, 0.0], "type": "Point"}, "properties": {"category": "entertainment", "location": "Dogville", "title": "Briton wins short film Oscar", "topic": "Briton wins short film Oscar"}, "type": "Feature"}, {"geometry": {"coordinates": [-0.127647, 51.507322], "type": "Point"}, "properties": {"category": "entertainment", "location": "London", "title": "Hanks greeted at wintry premiere", "topic": "Hanks greeted at wintry premiere"}, "type": "Feature"}, {"geometry": {"coordinates": [-120.907089, 37.640814], "type": "Point"}, "properties": {"category": "entertainment", "location": "Empire", "title": "Critics back Aviator for Oscars", "topic": "Critics back Aviator for Oscars"}, "type": "Feature"}, {"geometry": {"coordinates": [-3.276575, 54.702354], "type": "Point"}, "properties": {"category": "entertainment", "location": "UK", "title": "De Niro completes box office coup", "topic": "De Niro completes box office coup"}, "type": "Feature"}, {"geometry": {"coordinates": [1.888334, 46.603354], "type": "Point"}, "properties": {"category": "entertainment", "location": "France", "title": "French honour for director Parker", "topic": "French honour for director Parker"}, "type": "Feature"}, {"geometry": {"coordinates": [-100.445882, 39.78373], "type": "Point"}, "properties": {"category": "entertainment", "location": "US", "title": "New media battle for Bafta awards", "topic": "New media battle for Bafta awards"}, "type": "Feature"}, {"geometry": {"coordinates": [-4.838065, 39.326234], "type": "Point"}, "properties": {"category": "entertainment", "location": "Spain", "title": "Sideways dominates Spirit awards", "topic": "Sideways dominates Spirit awards"}, "type": "Feature"}, {"geometry": {"coordinates": [-3.276575, 54.702354], "type": "Point"}, "properties": {"category": "entertainment", "location": "UK", "title": "Hollywood ready for Oscars night", "topic": "Hollywood ready for Oscars night"}, "type": "Feature"}, {"geometry": {"coordinates": [5.9799, 51.437148], "type": "Point"}, "properties": {"category": "entertainment", "location": "America", "title": "US 'afflicted' with awards fatigue", "topic": "US 'afflicted' with awards fatigue"}, "type": "Feature"}, {"geometry": {"coordinates": [-100.445882, 39.78373], "type": "Point"},